Time (ms),roll,pitch,yaw,thrust
0.11949467658996582,0.000823632872197777,-0.004288699943572283,0.003287527011707425,-0.142648383975029
0.21798276901245117,0.0005213791155256331,-0.0030831643380224705,-0.0009236561600118876,-0.14626170694828033
0.31676697731018066,-0.0010558237554505467,-0.005544529762119055,0.007087981328368187,-0.11769384890794754
0.42171645164489746,0.0019825464114546776,-3.904143159161322e-05,-0.00308632873930037,-0.1414215862751007
0.5165886878967285,0.0028837716672569513,-0.0011346269166097045,-0.0027971183881163597,-0.12167467921972275
0.6199002265930176,0.0026194839738309383,-0.001916431589052081,-0.00021434141672216356,-0.1143842488527298
0.7217326164245605,0.0014491267502307892,0.00044099081424064934,-0.00048031052574515343,-0.11400553584098816
0.8139948844909668,-0.0005253534181974828,-0.005371445789933205,0.005699792876839638,-0.0680583193898201
0.9199066162109375,0.0009756704093888402,-0.0027651742566376925,0.0024035731330513954,-0.07910051941871643
1.0207042694091797,0.0028918508905917406,0.0005338884075172246,0.000790266552940011,-0.1018083393573761
1.1177926063537598,0.003123861737549305,-0.002670717891305685,-0.0010455772280693054,-0.0720008984208107
1.2190380096435547,0.003334303153678775,-0.0026632293593138456,0.004275162238627672,-0.06345033645629883
1.311809778213501,-0.0012360895052552223,-0.005768941715359688,0.006168642546981573,-0.03772089630365372
1.4136314392089844,0.0027215664740651846,0.0009833666263148189,0.007535665761679411,-0.08818335831165314
1.5188298225402832,0.002083935309201479,-0.0019330938812345266,0.001502745901234448,-0.0627584457397461
1.6200921535491943,-0.0018473273376002908,-0.0016626314027234912,-0.008092065341770649,-0.05923818051815033
1.719386339187622,0.0017912635812535882,0.0007575027993880212,-0.0026126315351575613,-0.0775616466999054
1.8154232501983643,0.00147878413554281,-0.0031105978414416313,0.007856126874685287,-0.05114203691482544
1.9183933734893799,0.0015299787046387792,-0.0011385162360966206,0.0005887915031053126,-0.0669228583574295
2.0214202404022217,0.004728317726403475,-0.0013818846782669425,0.00031113476143218577,0.0074458797462284565
2.117812156677246,0.010493086650967598,-0.000150982741615735,0.004201093222945929,-0.07984519749879837
2.21231746673584,0.0036121925804764032,-0.006803395692259073,-0.0003246251435484737,0.05146392062306404
2.319542407989502,0.006317087449133396,-0.0014260906027629972,0.0014826396945863962,-0.07398378103971481
2.417889356613159,0.0056855333968997,0.0009923218749463558,0.005341222509741783,-0.1065659150481224
2.51863956451416,0.004409844055771828,-0.0010140741942450404,0.005005842074751854,-0.07300743460655212
2.619231939315796,0.0045465691946446896,-0.00039887780440039933,0.006872836034744978,-0.08109379559755325
2.714097023010254,0.0005641256575472653,-0.007977533154189587,0.0027626827359199524,-0.00711095379665494
2.819507360458374,0.0038565201684832573,0.0003223649109713733,0.005104475654661655,-0.09780657291412354
2.9186363220214844,0.003550064517185092,-0.0025265724398195744,-0.004152893088757992,-0.07410643994808197
3.0121824741363525,0.002775679575279355,-0.0030791291501373053,-0.003817122196778655,-0.07136993855237961
3.1139986515045166,0.0022377907298505306,-0.002978338161483407,-0.004256789572536945,-0.07754624634981155
3.2156894207000732,0.0022884453646838665,-0.0023420550860464573,0.006637878715991974,-0.0803259015083313
3.3176801204681396,0.0005767724942415953,-0.003702180227264762,0.005880782846361399,-0.07421769201755524
3.4190378189086914,0.00032476786873303354,-0.0031529671978205442,-0.0008683109772391617,-0.08276242017745972
3.5213327407836914,0.002092389389872551,-0.00176241563167423,-0.004931682720780373,-0.09493415057659149
3.6180169582366943,0.001450088107958436,-0.004018302075564861,-7.306721727218246e-06,-0.08116395026445389
3.719831705093384,0.000386367435567081,-0.0005462474655359983,0.007023436017334461,-0.09385170787572861
3.812556505203247,-8.669785893289372e-05,-0.0059843119233846664,-0.0035399741027504206,-0.05282510071992874
3.917578935623169,0.0012079268926754594,-0.002281319350004196,-0.003862145124003291,-0.08862579613924026
4.017493963241577,0.0002965545281767845,-0.0024422688875347376,0.003586038015782833,-0.08598003536462784
4.117335557937622,-0.00058687140699476,0.0009640911594033241,-0.0030519270803779364,-0.11280858516693115
4.211518287658691,-0.003414303530007601,-0.003972167614847422,-0.0004236256645526737,0.006818619091063738
4.32009220123291,0.012165151536464691,-0.0020206149201840162,0.0014358148910105228,-0.03862413763999939
4.4189293384552,0.0033134797122329473,-0.0007975458283908665,-0.00035750787355937064,-0.005172167904675007
4.513808250427246,0.0125631894916296,-0.0022198681253939867,0.002260433742776513,0.051664236932992935
4.618605136871338,0.045173704624176025,-0.011380027048289776,-0.002395703224465251,-0.07027669996023178
4.7137415409088135,0.14078786969184875,0.03147643804550171,-0.013943237252533436,-0.3812606632709503
4.818095445632935,0.15323351323604584,0.08472979068756104,-0.003387514967471361,-0.03576117381453514
4.918522357940674,-0.02523975633084774,0.06269043684005737,0.043348342180252075,0.9689568281173706
5.017740964889526,-0.0670105591416359,0.06901056319475174,0.15408697724342346,1.0982125997543335
5.1185994148254395,-0.034939058125019073,0.06575117260217667,0.18196097016334534,1.1899806261062622
5.222184419631958,-0.05952201783657074,0.03529386222362518,0.16514688730239868,1.4258534908294678
5.31817889213562,-0.01520474161952734,0.011691207066178322,0.08402232080698013,1.3938229084014893
5.416609287261963,0.008831687271595001,-0.0016646712319925427,0.0712447538971901,0.9104424118995667
5.518407583236694,0.01318538561463356,-0.006184358149766922,0.14011086523532867,0.4965158700942993
5.618021249771118,0.030281709507107735,-0.008761842735111713,0.16776618361473083,0.011255594901740551
5.717986822128296,0.0174447912722826,0.0145707493647933,0.2085929811000824,-0.036609549075365067
5.812652349472046,0.002600057516247034,0.011464584618806839,0.2124127298593521,0.37916725873947144
5.917635917663574,-0.0005485385772772133,0.022285224869847298,0.25163233280181885,0.33599552512168884
6.017491102218628,0.0009316569194197655,0.04390735179185867,0.23339438438415527,0.3427550792694092
6.11846137046814,-0.0006172487046569586,0.013141698203980923,0.24186237156391144,0.8638856410980225
6.215644359588623,0.0007059026975184679,0.0008688399684615433,0.25847235321998596,0.5512811541557312
6.316522121429443,0.0019525067182257771,0.0006272668833844364,0.3040919899940491,0.16425111889839172
6.4142069816589355,-0.0018805789295583963,0.0004419939359650016,0.2894474267959595,-0.07568517327308655
6.5159218311309814,0.003961405251175165,0.00880158506333828,0.28901731967926025,-0.05816978961229324
6.618814945220947,0.0026749761309474707,0.0034776474349200726,0.2678433656692505,0.04945344850420952
6.718652963638306,0.0018940381705760956,-0.00697726896032691,0.28558096289634705,0.15779821574687958
6.810603618621826,0.002200077520683408,-0.0002023545530391857,0.27490487694740295,0.12817326188087463
6.918593883514404,0.004434110131114721,-0.012731682509183884,0.23342236876487732,0.24650877714157104
7.0181779861450195,0.001998406834900379,-0.011949649080634117,0.1556655466556549,0.08609255403280258
7.118422508239746,0.002574076410382986,-0.0700056329369545,0.11725777387619019,-0.034497249871492386
7.220822334289551,0.022153906524181366,-0.1008715033531189,0.11753248423337936,-0.9941381216049194
7.3135764598846436,0.045138176530599594,-0.11323920637369156,0.1263333559036255,-1.8080732822418213
7.417803525924683,0.04603680968284607,-0.11712031066417694,0.08710824698209763,-2.346295118331909
7.518971920013428,0.039223335683345795,-0.11016802489757538,0.059978920966386795,-2.6070432662963867
7.617507219314575,0.03791073337197304,-0.07616683840751648,0.049508918076753616,-2.5768027305603027
7.719786167144775,0.03796250373125076,-0.04245838522911072,0.03771483153104782,-2.097667932510376
7.8120667934417725,0.037400390952825546,-0.012801225297152996,0.0391959510743618,-1.40855872631073
7.915760040283203,0.04355842247605324,0.0004585337301250547,0.03593128174543381,-0.749849796295166
8.017346858978271,0.048563696444034576,0.003983418457210064,0.026256907731294632,-0.24851545691490173
8.116249799728394,0.033458780497312546,0.012717331759631634,0.02187269739806652,-0.11171912401914597
8.216022253036499,0.01565323770046234,0.00925714336335659,0.008286337368190289,0.001387417665682733
8.318042278289795,0.07146668434143066,-0.008843844756484032,0.028056377544999123,0.03796284645795822
8.414710283279419,0.041361432522535324,0.014445721171796322,0.012957679107785225,-0.11841758340597153
8.517149448394775,0.018294915556907654,-0.0009010303183458745,0.0034550069831311703,-0.040047548711299896
8.61662220954895,0.00300500076264143,-0.009489322081208229,0.014109291136264801,0.09631852805614471
8.713612079620361,0.008145351894199848,-0.0067013464868068695,0.21071060001850128,-0.14199519157409668
8.815757274627686,0.005856276955455542,-0.0014607583871111274,0.09315384179353714,-0.3479924201965332
8.917841672897339,0.0040169102139770985,0.001829673768952489,-0.027181046083569527,-0.08195603638887405
9.013483047485352,-0.010187871754169464,0.012499676086008549,-0.04873371496796608,-0.14035746455192566
9.115740060806274,-0.03320206329226494,0.04949359968304634,-0.05736664682626724,0.25397437810897827
9.218603134155273,-0.042547181248664856,0.08115097880363464,-0.03878038376569748,1.053537130355835
9.319645643234253,-0.04268227890133858,0.09157019108533859,-0.03248622268438339,1.9881606101989746
9.411459684371948,-0.017639264464378357,0.03591221198439598,-0.028875859454274178,2.2140371799468994
9.517676830291748,-0.010097848251461983,-0.04378296434879303,-0.022169649600982666,1.5858268737792969
9.618239402770996,-0.010257123038172722,-0.08193506300449371,-0.022971417754888535,-0.10846979916095734
9.718118906021118,0.010382541455328465,-0.12854841351509094,-0.008459403179585934,-1.365655541419983
9.819953441619873,-0.005877587012946606,-0.08504233509302139,-0.0005575011600740254,-2.4679787158966064
9.912753820419312,-0.006037084851413965,-0.030984673649072647,-0.007536569144576788,-2.3954405784606934
10.018667936325073,-0.014965084381401539,0.01775917410850525,-0.00578342517837882,-1.4742684364318848
10.119377374649048,0.013108777813613415,0.06223386153578758,-0.0194536242634058,-0.3458031415939331
10.213974475860596,0.009778008796274662,0.06773697584867477,-0.00641274219378829,0.7713510990142822
10.316599130630493,-0.0017627229681238532,0.044194482266902924,0.0028946835082024336,1.2499613761901855
10.411766052246094,-0.005681897047907114,0.016140233725309372,-0.007392131257802248,1.1174499988555908
10.515026807785034,-0.014526261016726494,-0.005925263278186321,0.001159525359980762,0.6746774911880493
10.618626832962036,-0.0008523616706952453,-0.008776098489761353,-0.0028578012716025114,0.1592436134815216
10.717854738235474,-0.0024109291844069958,-0.00817764550447464,-0.02063700556755066,-0.04260723292827606
10.821717977523804,0.005967725068330765,-0.007581963669508696,-0.01995469257235527,-0.2214333564043045
10.915175437927246,0.07256653904914856,-0.012685222551226616,-0.0004629710456356406,-0.09070339798927307
11.017938137054443,0.1210886538028717,-0.004743826109915972,0.007885264232754707,-0.08729878067970276
11.115213871002197,0.17635804414749146,0.011745116673409939,-0.01760195381939411,-0.10778574645519257
11.217401027679443,0.24280697107315063,-0.003485881956294179,-0.00017421708616893739,0.12038395553827286
11.312406063079834,0.2679115831851959,-0.003389994613826275,-0.013836226426064968,0.19577813148498535
11.412439823150635,0.24065865576267242,0.0006348004098981619,-0.01142919808626175,0.2004244327545166
11.512734413146973,0.2266390472650528,-0.008896667510271072,-0.010151528753340244,0.1387277990579605
11.614919900894165,0.2223074734210968,-0.016949066892266273,-0.003215384902432561,0.01871599815785885
11.71575927734375,0.1821318417787552,-0.013144594617187977,-0.009323290549218655,-0.18479397892951965
11.817017078399658,0.1847352534532547,0.012430587783455849,-0.014796399511396885,-0.34437522292137146
11.918612718582153,0.17196089029312134,0.004365951754152775,-0.008364060893654823,0.08389902859926224
12.01515793800354,0.17849744856357574,0.004405156243592501,0.0001501690858276561,0.35265854001045227
12.117995023727417,0.19824959337711334,0.0037976643070578575,0.008495885878801346,0.3749084770679474
12.219367265701294,0.18950849771499634,0.0045573897659778595,-0.0032149923499673605,0.4705745577812195
12.314631938934326,0.191651850938797,-0.0003774974902626127,-0.0002731106069404632,0.5251893401145935
12.418215990066528,0.19448240101337433,-0.013504566624760628,0.007540919817984104,0.6432487964630127
12.52005934715271,0.2028040736913681,-0.020876159891486168,0.004191896878182888,0.5401856899261475
12.615342378616333,0.19670972228050232,-0.03855946287512779,-0.0023144525475800037,0.24899984896183014
12.717734336853027,0.2022245228290558,-0.044820353388786316,-0.0024510591756552458,0.005234985146671534
12.820360660552979,0.22385075688362122,-0.04188337177038193,-0.00876594614237547,-0.36532190442085266
12.919158935546875,0.20951634645462036,-0.03201095014810562,-0.002906501991674304,-0.6008469462394714
13.01546597480774,0.19055350124835968,-0.0228100772947073,-0.0033525037579238415,-0.6394864320755005
13.118894100189209,0.15891596674919128,-0.0029368666000664234,-0.012898928485810757,-0.4843040406703949
13.21803617477417,0.1764613837003708,0.005071493797004223,-0.01782848685979843,-0.2551531195640564
13.310439348220825,0.1746021956205368,0.0076474519446492195,0.008021118119359016,0.11218675971031189
13.413771390914917,0.20563289523124695,0.009174998849630356,-0.0006796361412853003,0.24180954694747925
13.518451690673828,0.21265137195587158,0.013896535150706768,-0.013128034770488739,0.38357964158058167
13.618533849716187,0.20611286163330078,0.005526383873075247,0.005148393101990223,0.5417364835739136
13.718435525894165,0.21723467111587524,-0.005595392547547817,0.001099156099371612,0.5992625951766968
13.818482875823975,0.2159498929977417,-0.02245984598994255,-0.011641930788755417,0.43468818068504333
13.912584781646729,0.18397217988967896,-0.02129030041396618,-0.018006814643740654,0.22522403299808502
14.015192747116089,0.1674310564994812,-0.021330326795578003,-0.01703847385942936,0.02716868929564953
14.122466802597046,0.14808830618858337,-0.01264480035752058,0.006244566757231951,-0.10587477684020996
14.213129758834839,0.12217722833156586,-0.0043328809551894665,0.0121762128546834,0.0342213399708271
14.31335711479187,0.13526864349842072,-0.006986688822507858,0.0044116671197116375,0.22489725053310394
14.417925596237183,0.1489488035440445,-0.0006482845637947321,-0.014606035314500332,0.30703505873680115
14.512591361999512,0.10076198726892471,0.0007607609149999917,-0.00946897268295288,0.4419027864933014
14.6183021068573,0.0993393287062645,-0.006371975410729647,-0.005212727934122086,0.7507988214492798
14.718316078186035,0.11879228055477142,-0.02021029219031334,0.004212035797536373,0.8450989127159119
14.81172227859497,0.13891755044460297,-0.025419628247618675,0.007922324351966381,0.7296057343482971
14.914082288742065,0.1252540946006775,-0.03552159294486046,7.193130295490846e-05,0.5696498155593872
15.017292499542236,0.12166360020637512,-0.041925810277462006,0.01402280293405056,0.43291059136390686
15.118816375732422,0.16595785319805145,-0.009638383984565735,0.020101750269532204,0.1778971552848816
15.215937614440918,0.24723902344703674,-0.03669482469558716,-0.018679993227124214,0.5295305848121643
15.318275928497314,0.3168170750141144,-0.06998763233423233,-0.04971335455775261,0.4689632058143616
15.41070008277893,0.3582753837108612,-0.10191019624471664,-0.005347646307200193,-0.20699836313724518
15.512521266937256,0.35192811489105225,-0.11443942785263062,-0.003344441531226039,-1.3157196044921875
15.615984678268433,0.33401161432266235,-0.0993674248456955,0.006424872204661369,-2.394631862640381
15.713557720184326,0.2763917148113251,-0.06364807486534119,0.01076650433242321,-2.927976608276367
15.816287279129028,0.22549468278884888,-0.01981014758348465,-0.0024408369790762663,-3.126269578933716
15.917316675186157,0.15683379769325256,0.027862409129738808,-0.010664651170372963,-2.8208885192871094
16.01909327507019,0.08612687885761261,0.07004228234291077,-0.007957280613481998,-2.0577073097229004
16.117096424102783,0.0188832376152277,0.09707897901535034,0.008038281463086605,-0.9341524243354797
16.217517375946045,-0.01559855043888092,0.10359164327383041,-0.00603710999712348,0.08873718231916428
16.318562984466553,-0.038173556327819824,0.09068819135427475,0.006510533858090639,0.761221170425415
16.409666776657104,-0.06500501185655594,0.07883645594120026,0.021177973598241806,1.0520224571228027
16.51446008682251,-0.08468908071517944,0.06415964663028717,0.006754642818123102,1.6871976852416992
16.616761207580566,-0.059245869517326355,0.03147578239440918,-0.0018254354363307357,1.6901443004608154
16.71452808380127,-0.05074590817093849,0.003429056378081441,-0.06296683847904205,1.183233618736267
16.818440675735474,-0.01013968139886856,-0.01983516849577427,-0.08076037466526031,0.5184020400047302
16.91743803024292,0.04022682085633278,-0.03847196698188782,-0.13482387363910675,0.021864240989089012
17.012069702148438,0.0679934173822403,-0.04124169424176216,-0.14671823382377625,-0.4815368056297302
17.113465309143066,0.06674768775701523,-0.031622596085071564,-0.1574041098356247,-0.8422325253486633
17.21877121925354,0.044503964483737946,-0.013311532326042652,-0.17141154408454895,-0.814826250076294
17.315158367156982,0.015444744378328323,0.00219963607378304,-0.19686952233314514,-0.5090653300285339
17.41789722442627,-0.0004165400459896773,-0.004931039642542601,-0.2129383385181427,-0.09858018904924393
17.51279044151306,0.008881446905434132,-0.01963729038834572,-0.22483636438846588,-0.15789487957954407
17.613950729370117,-0.00324261374771595,-0.026482677087187767,-0.21993079781532288,-0.26165786385536194
17.713860273361206,-0.00744506623595953,-0.013428045436739922,-0.20491404831409454,-0.47102048993110657
17.81813621520996,0.0021238066256046295,0.05227746069431305,-0.21312694251537323,-0.42828232049942017
17.918556451797485,-0.015389044769108295,0.06966940313577652,-0.2118794173002243,0.6360090374946594
18.011555194854736,-0.02251911349594593,0.062042463570833206,-0.21145084500312805,1.172011375427246
18.118402004241943,-0.021008996292948723,0.0360015407204628,-0.22007107734680176,1.2532206773757935
18.210973978042603,-0.02843228168785572,0.02225063554942608,-0.22905118763446808,0.9285341501235962
18.312836408615112,0.009102905169129372,0.01189388707280159,-0.219268798828125,0.4765443503856659
18.416805028915405,0.007072989363223314,-0.059612538665533066,-0.23040810227394104,0.11043122410774231
18.51948595046997,0.004476462956517935,-0.04505353420972824,-0.2155638337135315,-1.0622398853302002
18.613799333572388,0.005586170591413975,-0.018957966938614845,-0.2103911191225052,-1.3160923719406128
18.712877988815308,0.01594838686287403,-0.00023735480499453843,-0.21481384336948395,-1.2306466102600098
18.81570863723755,-0.0019662072882056236,0.04764753580093384,-0.20788085460662842,-0.7578203678131104
