Time (ms),roll,pitch,yaw,thrust
0.10817599296569824,0.006561878602951765,0.003095126012340188,0.0005210250965319574,-0.739169716835022
0.21001482009887695,-4.3024640035582706e-05,0.00042504086741246283,0.002774919383227825,-0.7164240479469299
0.31163740158081055,0.0006912664393894374,0.002522159367799759,-0.0011614798568189144,-0.7281916737556458
0.4134032726287842,0.0024691091384738684,0.001344375777989626,0.0072413343004882336,-0.7163885235786438
0.5060877799987793,0.006182643119245768,-0.005072627682238817,0.0018006403697654605,-0.6794663071632385
0.6129212379455566,0.002790487837046385,-0.001030585146509111,0.0038890386931598186,-0.6950121521949768
0.71181321144104,0.00759171275421977,0.002697364194318652,0.008561228401958942,-0.7209887504577637
0.8058969974517822,0.0012794480426236987,0.005615340545773506,0.0059746792539954185,-0.7260483503341675
0.9087469577789307,0.0014019174268469214,0.002898277249187231,-0.005647345911711454,-0.6948921084403992
1.0050842761993408,0.006843863986432552,0.0014601013390347362,0.003383408300578594,-0.6866276860237122
1.1068155765533447,-0.0013278170954436064,-0.006162617355585098,-0.00032715004635974765,0.009955884888768196
1.2089526653289795,0.00504652364179492,-0.0075314585119485855,-0.001113798120059073,-0.1410416066646576
1.311180591583252,0.023223204538226128,-0.015323576517403126,-0.005456671584397554,-0.15719594061374664
1.4037914276123047,0.010669456794857979,-0.002235592110082507,-0.0010073513258248568,-0.5505384206771851
1.5058395862579346,0.0127548947930336,-0.004717450123280287,-0.0050844899378716946,-0.5552307963371277
1.607903242111206,0.004748067818582058,0.0007200561231002212,0.005783304572105408,-0.6441043615341187
1.710066318511963,0.0013338258722797036,-0.0012540153693407774,0.001425299677066505,-0.6307626366615295
1.8112056255340576,0.008179064840078354,-0.007083939854055643,0.003882419317960739,-0.5780335664749146
1.9033677577972412,-0.004346791189163923,0.009076468646526337,-0.0026170650962740183,-0.7371132373809814
2.005540609359741,0.000748045917134732,0.0004282853042241186,0.005494065582752228,-0.6588842272758484
2.1079816818237305,0.002510322257876396,0.0009869500063359737,0.005257680080831051,-0.6769459843635559
2.2115941047668457,0.0072542354464530945,0.0061137862503528595,-0.0009623704827390611,-0.7194811701774597
2.3117470741271973,0.0014187253545969725,0.0010984446853399277,-0.0024157478474080563,-0.6758667826652527
2.4133188724517822,0.0003870168293360621,0.0023447079584002495,-0.0035168470349162817,-0.6814229488372803
2.50541090965271,-0.000305643945466727,6.341029074974358e-05,-0.0011538144899532199,-0.6625402569770813
2.6090214252471924,-0.0014509184984490275,0.0002400541998213157,0.003821705933660269,-0.6626474857330322
2.712642192840576,0.0002124570746673271,0.0009598049800843,0.0006439335993491113,-0.6682956218719482
2.8125009536743164,0.005640601273626089,-0.004109244793653488,-0.0006197323091328144,-0.6236387491226196
2.904876947402954,0.0017656713025644422,0.0009257237543351948,-0.00021009966440033168,-0.6670390367507935
3.006742000579834,0.0015083596808835864,-0.0007753613754175603,0.007986561395227909,-0.6506529450416565
3.1089797019958496,0.0014671216486021876,0.0018400143599137664,-0.0015641188947483897,-0.6740270853042603
3.2123215198516846,0.0006487991777248681,0.001960551366209984,0.0047430419363081455,-0.6651350855827332
3.303865909576416,-0.012494806200265884,0.008261892013251781,-0.0012768699089065194,-0.6388106346130371
3.4068033695220947,-0.022919142618775368,0.008413144387304783,0.004338013473898172,-0.5531795620918274
3.5100581645965576,-0.044346630573272705,0.02273157797753811,0.012658681720495224,-0.443437784910202
3.612312078475952,-0.06661845743656158,0.02109663002192974,0.012620804831385612,0.012048534117639065
3.7048254013061523,-0.03135732561349869,-0.02102263830602169,0.005292677320539951,0.4660852551460266
3.806988000869751,0.05893894284963608,-0.09442300349473953,-0.012467844411730766,0.79515141248703
3.9131784439086914,0.1125689297914505,-0.09125993400812149,0.060690198093652725,-1.1675217151641846
4.012944459915161,0.0726243332028389,-0.015270267613232136,0.2162214070558548,-1.4256336688995361
4.105315685272217,0.033683594316244125,0.008185635320842266,0.20831698179244995,-0.31668350100517273
4.209027051925659,0.020892148837447166,0.006276116706430912,0.16213905811309814,0.004984659142792225
4.30935525894165,-0.004893696401268244,0.026599707081913948,0.049489639699459076,0.03648646920919418
4.4113569259643555,0.034985922276973724,0.010998544283211231,0.06175660714507103,0.6516170501708984
4.506265640258789,0.015817582607269287,-0.0015710946172475815,0.13187114894390106,0.4510396718978882
4.606246471405029,-0.010610881261527538,-0.00881141610443592,0.188626229763031,0.3323279023170471
4.707643270492554,-0.007919969968497753,-0.003795123426243663,0.19639314711093903,-0.026299605146050453
4.810423374176025,-0.004451098386198282,-0.0018966656643897295,0.20055988430976868,-0.12545500695705414
4.913094758987427,-0.004535329528152943,0.0008870059391483665,0.21344436705112457,-0.2195858210325241
5.007143974304199,-0.0004553745675366372,0.004716933239251375,0.24916422367095947,-0.3120342791080475
5.107143878936768,0.005610703490674496,0.00046383318840526044,0.2407972365617752,-0.19486495852470398
5.211353778839111,0.007305228151381016,0.004086444620043039,0.24394311010837555,-0.2500891387462616
5.312845945358276,0.00717294542118907,0.006967678666114807,0.25053539872169495,-0.2151617705821991
5.407696723937988,0.0033466415479779243,0.01273288857191801,0.2723451256752014,-0.07688193023204803
5.5084991455078125,0.0035744693595916033,0.01015420351177454,0.2526242434978485,0.0020612680818885565
5.610509872436523,-0.0060067735612392426,-0.0024177744053304195,0.27265211939811707,0.2516840100288391
5.712784767150879,-0.00551091693341732,-0.0021709022112190723,0.25409358739852905,0.030755799263715744
5.8080971240997314,-0.0018936935812234879,0.0004102776583749801,0.26994842290878296,-0.12756472826004028
5.908308744430542,0.0010013786377385259,-0.003505145665258169,0.27063825726509094,-0.1184471845626831
6.010088920593262,0.004010881297290325,-0.0065297712571918964,0.23843508958816528,-0.08016689121723175
6.111131906509399,0.004477372393012047,0.023975953459739685,0.1696360558271408,-0.056455306708812714
6.209032297134399,0.00537935271859169,0.042728155851364136,0.1144651398062706,0.0971008688211441
6.3138322830200195,-0.000317319791065529,0.032271236181259155,0.10562608391046524,0.62248295545578
6.412433385848999,-0.003612479427829385,0.017419366165995598,0.10436214506626129,0.7783433198928833
6.509295463562012,-0.005622278433293104,0.004967826418578625,0.07686545699834824,0.6667228937149048
6.613903522491455,-0.0015258222119882703,-0.025140995159745216,0.06310692429542542,0.3527107238769531
6.711514472961426,-0.002107649575918913,-0.05986340343952179,0.05119729042053223,0.06277341395616531
6.8097405433654785,0.006847462151199579,-0.07186131924390793,0.04677192494273186,-0.5539907813072205
6.90989089012146,0.0030958792194724083,-0.05080290138721466,0.026161665096879005,-1.1909130811691284
7.012717962265015,-0.0007209890754893422,-0.028036929666996002,0.01424169261008501,-1.1908804178237915
7.110507011413574,0.004251872189342976,-0.00860578753054142,0.01737068220973015,-0.9139260053634644
7.210809230804443,0.0025315817911177874,0.00803343579173088,0.014440868981182575,-0.44848114252090454
7.310732364654541,0.00838928110897541,0.030942322686314583,0.004528404213488102,-0.15388299524784088
7.4107255935668945,-0.0006542710470966995,0.019017204642295837,0.016069859266281128,0.3304056227207184
7.513029336929321,0.013512713834643364,0.006677231751382351,0.003230867674574256,0.49249327182769775
7.6134397983551025,0.004453515168279409,-0.005726579576730728,0.0008048083400353789,0.36985522508621216
7.711581707000732,0.009800149127840996,-0.019869429990649223,0.011530961841344833,0.16562217473983765
7.811831951141357,-0.00027948853676207364,0.0005616587586700916,0.21200503408908844,-0.024371512234210968
7.912204027175903,-0.01042554248124361,0.0006222614902071655,0.12440147250890732,0.03342317044734955
8.012271881103516,-0.005549799185246229,-0.01515089813619852,-0.03497344255447388,0.31513118743896484
8.112325668334961,-0.0020310739055275917,-0.021373210474848747,-0.08508705347776413,-0.13552820682525635
8.212447881698608,0.02126614935696125,-0.03717479109764099,-0.06434078514575958,-0.3334517776966095
8.312358140945435,0.009759020060300827,-0.04711129143834114,-0.04213077947497368,-0.5117371678352356
8.412499904632568,0.03794550523161888,-0.070085808634758,-0.026330240070819855,-0.7794134020805359
8.512611627578735,0.005533161573112011,-0.04510201886296272,-0.03427579998970032,-1.1003812551498413
8.612644910812378,-0.003551115980371833,-0.02067665196955204,-0.029560839757323265,-1.017737865447998
8.71275281906128,0.004435266833752394,-0.008260518312454224,-0.028618913143873215,-0.6546755433082581
8.81312370300293,-0.006584514863789082,0.012350018136203289,-0.02821044810116291,-0.4873313009738922
8.906500816345215,0.007744934875518084,0.017440758645534515,0.004417679738253355,-0.009322525933384895
9.013408899307251,0.00679396465420723,0.04415564984083176,0.01838510110974312,-0.0044897329062223434
9.111738681793213,0.004467247053980827,0.02925105206668377,-0.002346964320167899,0.5164801478385925
9.214012145996094,-0.0073636118322610855,0.030428407713770866,-0.011951851658523083,0.4914040267467499
9.305882692337036,-0.00033291795989498496,0.051890648901462555,-0.016375118866562843,0.2642692029476166
9.411914348602295,-0.0019068712135776877,0.03233342617750168,-0.006022108718752861,0.6098772287368774
9.509815216064453,-0.001602986827492714,0.018621351569890976,-0.0035599477123469114,0.6171178817749023
9.611929416656494,-0.0047719781287014484,-0.011646629311144352,0.002155264839529991,0.4941249489784241
9.703606367111206,0.0011103773722425103,-0.014297518879175186,0.011267127469182014,-0.041913002729415894
9.806174516677856,0.0038925663102418184,-0.03544636070728302,0.000551514676772058,-0.3313896954059601
9.911452531814575,0.03260183334350586,-0.037406958639621735,-0.00799880363047123,-0.9993811845779419
10.010708570480347,0.07959137856960297,-0.017678117379546165,-0.01087928656488657,-1.3333773612976074
10.102660179138184,0.13532058894634247,0.011666258797049522,-0.009349084459245205,-1.3687875270843506
10.205448627471924,0.14636914432048798,0.03523494303226471,-0.007643992081284523,-1.0609686374664307
10.307612895965576,0.19344215095043182,0.05165431275963783,-0.0026440478395670652,-0.45770007371902466
10.410571336746216,0.21781039237976074,0.06078237295150757,-0.00227051111869514,0.20832474529743195
10.503400087356567,0.22965998947620392,0.058137696236371994,-0.005642429925501347,0.6609565019607544
10.605471134185791,0.2297935038805008,0.03052411414682865,-0.0021482654847204685,0.8967361450195312
10.711103200912476,0.20969180762767792,0.025284044444561005,-0.008627747185528278,0.696614682674408
10.811197519302368,0.17819219827651978,0.018231535330414772,-0.023301875218749046,0.2925138771533966
10.903820514678955,0.16738884150981903,-0.016406496986746788,-0.02162613347172737,0.23176836967468262
11.00608229637146,0.15485355257987976,-0.005421089008450508,-0.0012124048080295324,-0.22507953643798828
11.109241247177124,0.15266302227973938,-0.010808019898831844,0.007507735397666693,-0.7012004256248474
11.210656642913818,0.16108247637748718,-0.0072446851991117,0.005510483868420124,-0.8947538733482361
11.313539505004883,0.16964322328567505,0.01041310466825962,-0.012185534462332726,-0.8663113713264465
11.405985832214355,0.18444155156612396,-0.0011653562542051077,0.0016817107098177075,-0.707561731338501
11.507994413375854,0.16319046914577484,0.02106000855565071,0.008684474974870682,-0.7985994219779968
11.609925746917725,0.15640905499458313,0.024107186123728752,0.005783381871879101,-0.7473189234733582
11.70244574546814,0.22402246296405792,0.017183857038617134,0.006301041692495346,-0.6895920038223267
11.804837703704834,0.23377767205238342,0.021813612431287766,-0.010636569000780582,-0.8613314628601074
11.909767389297485,0.1828027218580246,0.04434148222208023,0.0010642409324645996,-1.019735336303711
12.010729551315308,0.1863342672586441,0.04929247125983238,0.0017423412064090371,-0.8572460412979126
12.110839128494263,0.16659453511238098,0.05571793392300606,0.005899214651435614,-0.6865062713623047
12.203442573547363,0.19373880326747894,0.0645170658826828,-0.0022940041963011026,-0.47988495230674744
12.30536150932312,0.19293314218521118,0.06791321188211441,0.004693186841905117,-0.240816131234169
12.408050537109375,0.20722874999046326,0.05781453847885132,0.005390450358390808,-0.1339641660451889
12.512441635131836,0.17894594371318817,0.05281994491815567,0.002416390459984541,-0.37435072660446167
12.612748146057129,0.17607282102108002,0.060215339064598083,0.014443221502006054,-0.4188785254955292
12.7048659324646,0.18925787508487701,0.057529009878635406,0.006125470157712698,-0.19447165727615356
12.808219909667969,0.18407432734966278,0.057561472058296204,-0.004113196860998869,-0.0745997279882431
12.910228729248047,0.24170273542404175,0.06491382420063019,0.010110391303896904,-0.10999970138072968
13.002717018127441,0.2236991971731186,0.06306400895118713,0.008070354349911213,0.04433929920196533
13.10412883758545,0.2145831286907196,0.057620104402303696,-0.002976160030812025,0.2544853687286377
13.20563292503357,0.19161367416381836,0.04426124319434166,0.0006100157042965293,0.4036657214164734
13.308741331100464,0.18342295289039612,0.03477935120463371,0.0013634463539347053,0.4520348608493805
13.411239862442017,0.1741141527891159,0.023493558168411255,-0.004552375990897417,0.3651251494884491
13.503522634506226,0.19351674616336823,0.003070542588829994,0.0003110992256551981,0.2528574764728546
13.605774402618408,0.18127986788749695,0.005005521699786186,-0.0022884260397404432,-0.237825408577919
13.709251642227173,0.17978577315807343,0.0009975876891985536,-0.0032405033707618713,-0.3618268072605133
13.811810493469238,0.17630928754806519,0.026278985664248466,-0.008399028331041336,-0.5003336071968079
13.912633895874023,0.1881830394268036,0.02946457639336586,-0.002351227216422558,-0.2615232765674591
14.004353523254395,0.1718645691871643,0.02573738433420658,-2.4811972252791747e-05,0.22810210287570953
14.106635570526123,0.20042987167835236,0.02002035826444626,-0.0061886245384812355,0.33635368943214417
14.209235906600952,0.1922074258327484,0.015199440531432629,-0.00873054750263691,0.3739447295665741
14.302647352218628,0.19040820002555847,0.015811728313565254,-0.007600664161145687,0.3001912236213684
14.40368914604187,0.19340786337852478,0.004249274265021086,0.0018185017397627234,0.1748649775981903
14.506176948547363,0.18896032869815826,0.003104170085862279,0.008124585263431072,0.063959501683712
14.611168146133423,0.18226180970668793,-0.004310764372348785,0.003274420974776149,0.1301061064004898
14.711848497390747,0.18981662392616272,-0.009735997766256332,0.001139082945883274,-0.01827121339738369
14.80367112159729,0.20793001353740692,0.011225022375583649,-0.01579984463751316,-0.14750400185585022
14.905776500701904,0.22225654125213623,0.008575170300900936,-0.005726615898311138,-0.2326396256685257
15.010327339172363,0.20767219364643097,0.0023607900366187096,0.010971195995807648,-0.09827390313148499
15.111217737197876,0.19835874438285828,0.0022423251066356897,0.0014891448663547635,-0.011834758333861828
15.203389406204224,0.15986035764217377,-0.0033596244174987078,-0.015002463012933731,0.08969724923372269
15.30509901046753,0.09737034142017365,-0.0010296102846041322,-0.012195705436170101,-0.07657526433467865
15.409438610076904,0.07218153029680252,-0.003896397305652499,0.00380862969905138,-0.2348034530878067
15.51152229309082,0.03934427350759506,0.0010123095707967877,-0.0004246119933668524,-0.2703414559364319
15.601080894470215,0.03221724182367325,0.0026147859171032906,-0.002094731666147709,-0.15630468726158142
15.703001022338867,0.017931098118424416,0.005303401034325361,-0.017038922756910324,-0.1595529019832611
15.805562019348145,0.0051230257377028465,0.009403873234987259,-0.059959761798381805,-0.15000134706497192
15.907991886138916,-0.005218493286520243,0.006352300755679607,-0.09094467759132385,-0.034002095460891724
16.009989500045776,-0.005235271528363228,0.003026920836418867,-0.12978817522525787,0.16739137470722198
16.10451054573059,-0.0031909707468003035,-0.0031717601232230663,-0.15390503406524658,0.2220148742198944
16.202736616134644,-0.0031298394314944744,-0.0006513054831884801,-0.17964273691177368,0.05909788981080055
16.30561637878418,0.0014090174809098244,0.00947811733931303,-0.17412881553173065,-0.021422527730464935
16.40942406654358,-0.0013367474311962724,-0.010088211856782436,-0.18452677130699158,0.24864694476127625
16.508480310440063,-0.0015677756164222956,-0.004418510477989912,-0.1933508813381195,0.2546864151954651
16.610848426818848,-0.00029338037711568177,-0.005313176661729813,-0.20602649450302124,0.16130046546459198
16.71175193786621,-0.001730285119265318,-0.020945925265550613,-0.20492812991142273,0.25459834933280945
16.804213047027588,-0.005719127599149942,-0.00985147338360548,-0.2130303680896759,0.15373414754867554
16.905981063842773,-0.028120024129748344,0.0011720545589923859,-0.21463298797607422,-0.032618746161460876
17.008224487304688,-0.02621324732899666,0.0011601276928558946,-0.22108609974384308,-0.051162466406822205
17.111499071121216,-0.01447989884763956,-0.004824393894523382,-0.2048526108264923,-0.02011330984532833
17.20323085784912,-0.005234871990978718,0.00320651987567544,-0.20476214587688446,-0.12662966549396515
17.305258989334106,0.0023551469203084707,-0.03138066083192825,-0.21307456493377686,0.06110759824514389
17.40871500968933,-0.0009200010099448264,-0.02877192571759224,-0.21802549064159393,-0.40042436122894287
17.511316299438477,0.016612069681286812,-0.026296554133296013,-0.19426503777503967,-0.5588816404342651
17.60324740409851,0.013397902250289917,-0.035105470567941666,-0.1878211349248886,-0.49766287207603455
17.705514430999756,0.01334433350712061,-0.05115462467074394,-0.24123235046863556,-0.5953217148780823
17.808133840560913,0.0035445825196802616,-0.03581232577562332,-0.22786854207515717,-1.0290863513946533
17.91075825691223,0.019630204886198044,-0.0373440720140934,-0.20833417773246765,-0.6842883825302124
