Time (ms),roll,pitch,yaw,thrust
0.11087822914123535,-0.0007046498358249664,-0.009556342847645283,-0.0003968738892581314,-1.2795270681381226
0.21070075035095215,-0.003293153829872608,-0.010148324072360992,0.0022758382838219404,-1.2815383672714233
0.3108253479003906,-0.004923721309751272,-0.010790850035846233,-0.0013747623888775706,-1.2866365909576416
0.41162729263305664,-0.00026368623366579413,-0.00828968919813633,-0.0005926119047217071,-1.2890138626098633
0.5106668472290039,-0.006726296618580818,-0.018070047721266747,-0.006579389329999685,-1.2289249897003174
0.6120760440826416,-0.00507265143096447,-0.012004360556602478,-0.0010043206857517362,-1.2842768430709839
0.7101016044616699,-0.002535253996029496,-0.012158798985183239,-0.003683383809402585,-1.2876672744750977
0.8117058277130127,-0.003176390426233411,-0.011864465661346912,-0.00505104660987854,-1.2925339937210083
0.9109699726104736,-0.003753109136596322,-0.011985638178884983,0.0011860299855470657,-1.3018970489501953
1.0109822750091553,-0.0037328696344047785,-0.011363361030817032,-0.003161089261993766,-1.3114131689071655
1.1113152503967285,-0.0019538465421646833,-0.01015754509717226,0.0009869560599327087,-1.312065839767456
1.2106707096099854,-0.0014377436600625515,-0.010399771854281425,-0.006963714491575956,-1.317136287689209
1.3111343383789062,-0.001675939536653459,-0.010091868229210377,0.0013460511108860373,-1.3240700960159302
1.410999059677124,-8.056501246755943e-05,-0.010757960379123688,9.164540824713185e-05,-1.3150032758712769
1.5097706317901611,-0.0007496829493902624,-0.00234210561029613,0.00011025951971532777,0.006209565792232752
1.609908103942871,0.006135266274213791,-0.022766292095184326,0.0007635566871613264,-0.174574077129364
1.710219144821167,0.015108522027730942,-0.02162315882742405,-0.00017632987874094397,-0.7354357838630676
1.8101680278778076,0.004166178870946169,-0.017840398475527763,0.007006645668298006,-1.0404654741287231
1.910712718963623,0.010203071869909763,-0.018532216548919678,0.0010536215268075466,-1.1483407020568848
2.010464906692505,-0.00042024877620860934,-0.009627465158700943,0.004846703726798296,-1.3368597030639648
2.1108009815216064,-0.00043065781937912107,-0.007671215571463108,-0.0031009523663669825,-1.3809012174606323
2.209580898284912,0.0012414581142365932,-0.008359904401004314,-0.005968085955828428,-1.3781996965408325
2.3096747398376465,-0.0017276537837460637,-0.008434109389781952,0.001592928427271545,-1.3801501989364624
2.409379243850708,0.003969400655478239,-0.007483863737434149,0.0019269349286332726,-1.389667272567749
2.5098533630371094,0.004115342162549496,-0.0075760832987725735,-0.0027183450292795897,-1.3872641324996948
2.609772205352783,-0.0024670129641890526,-0.007389201782643795,-0.0023993803188204765,-1.3723000288009644
2.7102553844451904,-0.005601825658231974,-0.013447229750454426,-0.002157962415367365,-1.322121024131775
2.8094146251678467,-0.0003996207669842988,-0.007824976928532124,-0.0004072023439221084,-1.3659029006958008
2.9102280139923096,0.0035295437555760145,-0.008779355324804783,0.004709748551249504,-1.3497910499572754
3.0096545219421387,-0.007784171961247921,-0.013537095859646797,0.0060800826177001,-1.3024818897247314
3.1100845336914062,-0.0021928800269961357,-0.008908447809517384,0.004110058769583702,-1.3420393466949463
3.210129499435425,-0.009009568952023983,-0.014028901234269142,0.0027234009467065334,-1.2978367805480957
3.309018135070801,-0.004674138501286507,-0.011316778138279915,0.002487223595380783,-1.326067566871643
3.40934681892395,-0.006251633632928133,-0.011694343760609627,-0.0017473272746428847,-1.3235414028167725
3.509340763092041,-0.006603051442652941,-0.016549110412597656,-0.008406279608607292,-1.2865958213806152
3.6098666191101074,-0.0035816538147628307,-0.009578331373631954,0.0010855485452339053,-1.3336470127105713
3.7099220752716064,-0.007682375144213438,0.005669534672051668,0.002619317267090082,-1.2233121395111084
3.8094072341918945,-0.017479615285992622,0.008225418627262115,0.010334156453609467,-0.9700055122375488
3.909172773361206,-0.018280090764164925,0.027104219421744347,0.010725258849561214,-0.8998165130615234
4.010220527648926,-0.008849154226481915,0.03589426726102829,0.005710386671125889,-0.7839682698249817
4.110145807266235,-0.017119349911808968,0.039075978100299835,0.0034826460760086775,-0.5237230062484741
4.209381341934204,0.005204250570386648,0.05669781193137169,0.0025600416120141745,0.8303492069244385
4.309560298919678,0.021988095715641975,-0.05662734806537628,-0.010668998584151268,2.1514742374420166
4.409213066101074,0.008883900940418243,-0.12798671424388885,0.044101543724536896,0.49589234590530396
4.508857250213623,0.02474335953593254,-0.07191897928714752,0.15246005356311798,-1.1889925003051758
4.609277248382568,-0.00030950005748309195,-0.01057178620249033,0.20190919935703278,-1.161795735359192
4.709769010543823,0.006104896776378155,0.012823729775846004,0.1556762009859085,-0.3073650598526001
4.810084104537964,0.012575355358421803,0.007679050788283348,0.10766557604074478,0.5286997556686401
4.909768581390381,0.009023790247738361,-0.003172114957123995,0.08389214426279068,0.48497429490089417
5.010105609893799,-0.02538701705634594,-0.0010975589975714684,0.09044789522886276,0.2828894257545471
5.110864639282227,-0.010778860189020634,-0.0020434155594557524,0.15117201209068298,0.12009259313344955
5.210071563720703,0.009211155585944653,0.0089398929849267,0.2052433341741562,0.15128251910209656
5.308980941772461,-0.02918165922164917,-0.0060570682398974895,0.23900637030601501,0.027685068547725677
5.409260272979736,-0.05019129812717438,0.03560924157500267,0.23072735965251923,0.1341446042060852
5.5094523429870605,0.06065831705927849,0.04946274682879448,0.2659793496131897,0.37750244140625
5.609207391738892,0.05448449030518532,0.04846315458416939,0.28939634561538696,0.9908391833305359
5.709352254867554,-0.004941466264426708,0.05305297672748566,0.2618863582611084,1.0947004556655884
5.810030460357666,0.009353582747280598,0.03059033304452896,0.24068515002727509,1.1267980337142944
5.908952951431274,0.043472398072481155,0.004870475269854069,0.2780068516731262,0.9186931848526001
6.009870290756226,0.10065263509750366,-0.008981114253401756,0.28212103247642517,0.42715221643447876
6.109741926193237,0.0761912390589714,-0.011577743105590343,0.2771662175655365,0.0672549232840538
6.209185600280762,0.03577804937958717,-0.03224191814661026,0.30719631910324097,-0.15298719704151154
6.30972957611084,0.017752069979906082,-0.02897004224359989,0.27950403094291687,-0.6566066741943359
6.409487009048462,0.00015180591435637325,-0.019133567810058594,0.2328515350818634,-0.8796669840812683
6.509549140930176,0.01785176619887352,-0.02340022847056389,0.18487054109573364,-0.6069526672363281
6.6089928150177,0.020328890532255173,-0.02218451164662838,0.13182730972766876,-0.49600329995155334
6.709337472915649,0.0374913290143013,0.0031053402926772833,0.1136072650551796,-0.5963617563247681
6.80985689163208,-0.024553099647164345,-0.012339428067207336,0.09609142690896988,-0.1719074547290802
6.9087183475494385,-0.006351965945214033,-0.004236448556184769,0.07662342488765717,-0.20026744902133942
7.009567499160767,0.01657315529882908,-0.00866975262761116,0.06506848335266113,-0.17453989386558533
7.109988689422607,0.06338789314031601,-0.0021462393924593925,0.0540497712790966,-0.2080099731683731
7.209820508956909,0.09611604362726212,0.0033967667259275913,0.049932170659303665,-0.12172487378120422
7.309410572052002,0.11668471992015839,0.0037978789769113064,0.0431109257042408,0.05579294636845589
7.408969879150391,0.12396189570426941,0.004665542393922806,0.033004142343997955,0.11949162930250168
7.509730339050293,0.09407789260149002,0.0109550254419446,0.029071398079395294,0.21603737771511078
7.608829736709595,0.0846303179860115,0.02265326678752899,0.025761600583791733,0.2063068002462387
7.709292411804199,0.05217301845550537,0.023608315736055374,0.018019193783402443,0.44623908400535583
7.809590816497803,0.027135789394378662,0.03631434589624405,0.0012485230108723044,0.5471501350402832
7.908798694610596,0.014422879554331303,0.04151562601327896,-0.0063245478086173534,0.783096969127655
8.008931636810303,0.011801091954112053,0.03649019077420235,0.004315308760851622,0.8972160816192627
8.109145641326904,1.019931222812076e-10,-9.371464715357547e-11,4.265777079126565e-06,0.0012587332166731358
8.209307193756104,0.005250765476375818,0.0015170789556577802,0.1495649367570877,0.09580026566982269
8.308993816375732,0.013286980800330639,0.002478080103173852,0.09406238794326782,-0.04344090446829796
8.409402132034302,0.013837670907378197,0.007059846539050341,0.0004838021704927087,-0.03514312207698822
8.509212732315063,0.009834998287260532,0.0072190589271485806,-0.03908167779445648,0.18161854147911072
8.60889196395874,0.03898422792553902,-0.009275221265852451,-0.040181439369916916,0.27452197670936584
8.70967721939087,0.04374952241778374,-0.006498255766928196,-0.04011627659201622,-0.06586834043264389
8.80866003036499,0.05452307313680649,-0.01202863547950983,-0.026063943281769753,-0.15018394589424133
8.908409357070923,0.005313551519066095,-0.00627548573538661,-0.015533636324107647,-0.180483877658844
9.008646726608276,-0.01904909312725067,-0.003323529614135623,-0.011759084649384022,-0.13540033996105194
9.108699560165405,-0.03702515736222267,0.010687572881579399,-0.008333775214850903,-0.20251618325710297
9.208870887756348,-0.04650197923183441,0.012602192349731922,-0.010294480249285698,0.028656408190727234
9.310215473175049,-0.02898440882563591,0.0026189186610281467,-0.0072971791960299015,0.2567594051361084
9.409298419952393,0.013273170217871666,-0.0011517065577208996,-0.005402768962085247,0.21561649441719055
9.550693035125732,-0.005987819749861956,-0.0002472584310453385,-0.011235454119741917,0.06565803289413452
9.611555337905884,0.021328214555978775,0.001947346143424511,0.008973216637969017,-0.017491038888692856
9.709356546401978,0.01682833768427372,0.0018808916211128235,0.01641339436173439,-0.01166438776999712
9.844099760055542,-0.002739211544394493,0.0027325961273163557,-0.0066705625504255295,0.016658805310726166
9.908811330795288,0.016054484993219376,-0.0020891735330224037,-0.021242903545498848,0.09612493216991425
10.0084068775177,-0.006504498887807131,0.0022198264487087727,-0.0057461378164589405,-0.046721432358026505
10.109169006347656,-0.007541443221271038,-0.0005498038954101503,-0.012313367798924446,-0.0026743258349597454
10.208438634872437,-0.011989925056695938,-0.0019926198292523623,-0.018905118107795715,0.09048949182033539
10.309085845947266,0.025069493800401688,0.003541724756360054,-0.006290968041867018,2.111503839492798
10.408274173736572,0.054107893258333206,-0.04614449664950371,-0.013078007847070694,3.702932596206665
10.508217334747314,0.1049535945057869,-0.12245634198188782,0.004618482664227486,3.7376444339752197
10.60939073562622,0.16601933538913727,-0.17386944591999054,0.012547132559120655,2.7051644325256348
10.708390712738037,0.18628990650177002,-0.2059890329837799,0.014950265176594257,1.376598834991455
10.808911085128784,0.19127033650875092,-0.2292122095823288,-0.022048603743314743,0.4682060182094574
10.909935474395752,0.18884284794330597,-0.2260102927684784,-0.03436246141791344,-0.3130207061767578
11.008866310119629,0.18692274391651154,-0.21039515733718872,-0.0024249465204775333,-0.46451234817504883
11.108335733413696,0.2065061777830124,-0.19608533382415771,0.01047585066407919,-0.3455669581890106
11.20948839187622,0.18853095173835754,-0.19745726883411407,0.00013935394235886633,0.08578715473413467
11.307947635650635,0.18696247041225433,-0.19367845356464386,0.004402142483741045,0.1962231695652008
11.408920288085938,0.19141437113285065,-0.18424752354621887,0.018841814249753952,0.1956644356250763
11.507997751235962,0.19347156584262848,-0.18170228600502014,2.8529708288260736e-05,0.34899675846099854
11.608731031417847,0.1800066977739334,-0.1994825154542923,-0.023531846702098846,0.4446184039115906
11.708559274673462,0.1869778037071228,-0.1922823041677475,-0.011448889039456844,0.23741522431373596
11.807833671569824,0.19748932123184204,-0.18146026134490967,0.005536052398383617,0.2772889733314514
11.908214807510376,0.23515307903289795,-0.1376754343509674,-0.010215319693088531,0.19364376366138458
12.00874662399292,0.22591184079647064,-0.139895960688591,-0.013278053142130375,1.0063369274139404
12.108261108398438,0.21443690359592438,-0.157663494348526,-0.023362640291452408,1.2725707292556763
12.208018779754639,0.191814124584198,-0.16584180295467377,-0.01974974200129509,1.1436573266983032
12.30855679512024,0.20754824578762054,-0.19876275956630707,0.009900596924126148,0.9776067137718201
12.40866231918335,0.19223512709140778,-0.2098277062177658,0.014390326105058193,0.5119302868843079
12.509005546569824,0.18206287920475006,-0.2119927555322647,-0.00730168679729104,0.08800888061523438
12.608062744140625,0.17648141086101532,-0.2037910372018814,-0.002021994674578309,-0.03737226873636246
12.707782983779907,0.17993345856666565,-0.2075137495994568,-0.0024368951562792063,-0.007478346582502127
12.808892488479614,0.18952684104442596,-0.20843087136745453,0.006212417967617512,-0.014718113467097282
12.908645868301392,0.19604064524173737,-0.19530224800109863,0.0005748204421252012,-0.07572890818119049
13.00778079032898,0.19727036356925964,-0.1837339550256729,-0.003149607917293906,0.07907851040363312
13.109467506408691,0.20083394646644592,-0.1782808154821396,-0.011993557214736938,0.4329046308994293
13.208645343780518,0.2175012081861496,-0.18083950877189636,-0.00890858843922615,0.5204699635505676
13.307758331298828,0.21062107384204865,-0.1775532364845276,-0.018830887973308563,0.6596548557281494
13.407996892929077,0.21028690040111542,-0.1858709156513214,-0.028251206502318382,0.5855902433395386
13.508559465408325,0.18630315363407135,-0.18982002139091492,-0.019362064078450203,0.556828498840332
13.608405828475952,0.17528529465198517,-0.18525351583957672,0.006755521055310965,0.3014684319496155
13.708414793014526,0.16864833235740662,-0.18348094820976257,0.022694658488035202,0.40269070863723755
13.80936574935913,0.17659777402877808,-0.18314263224601746,0.019261162728071213,0.5332536697387695
13.91150450706482,0.17960476875305176,-0.18167217075824738,0.013144563883543015,0.50250244140625
14.008642435073853,0.189034104347229,-0.1832522600889206,-0.014347326941788197,0.5553568601608276
14.10852336883545,0.19321539998054504,-0.1851053535938263,-0.016892526298761368,0.674243688583374
14.208488702774048,0.21554984152317047,-0.1889929622411728,-0.0017005784902721643,0.5115428566932678
14.307859182357788,0.21535243093967438,-0.19692052900791168,0.008342775516211987,0.46334779262542725
14.40869402885437,0.2196967452764511,-0.19659487903118134,-0.00980224646627903,0.34144526720046997
14.507888793945312,0.2067520171403885,-0.19718694686889648,0.010051625780761242,0.1802423894405365
14.608694076538086,0.21648280322551727,-0.1907062828540802,0.00741568161174655,0.23528863489627838
14.708422183990479,0.20589566230773926,-0.19247540831565857,-0.00772628840059042,0.20182053744792938
14.80853009223938,0.20547422766685486,-0.1900113821029663,-0.0013081030920147896,0.17159782350063324
14.907948017120361,0.2123965173959732,-0.18300285935401917,-0.0057237944565713406,0.24621453881263733
15.00799560546875,0.2010488063097,-0.17933054268360138,0.005165732000023127,0.38054874539375305
15.108692646026611,0.18051713705062866,-0.17731748521327972,0.008850734680891037,0.34905803203582764
15.20755648612976,0.16061627864837646,-0.17934812605381012,0.002022137399762869,0.418073445558548
15.307764768600464,0.14804312586784363,-0.1779100000858307,-0.003929169848561287,0.510242760181427
15.408647775650024,0.12224822491407394,-0.18304269015789032,-0.008230981417000294,0.6053133010864258
15.507798910140991,0.10950848460197449,-0.18978381156921387,-0.00850085448473692,0.41366010904312134
15.608119010925293,0.08560866117477417,-0.19335730373859406,0.0006765791331417859,0.31957563757896423
15.707946300506592,0.0689752921462059,-0.20064868032932281,-0.007937798276543617,0.2872600555419922
15.808613538742065,0.05712093785405159,-0.21160991489887238,-0.012203368358314037,0.20048348605632782
15.907703876495361,0.043265242129564285,-0.20349903404712677,-0.003914795815944672,-0.21263328194618225
16.007532835006714,0.04199198633432388,-0.19109037518501282,-0.010696075856685638,-0.5200952291488647
16.108356714248657,0.024852221831679344,-0.16985982656478882,-0.0022203349508345127,-0.6287950277328491
16.208746194839478,0.012526247650384903,-0.15719696879386902,0.011489547789096832,-0.5437406301498413
16.30781865119934,0.01807037554681301,-0.13725128769874573,-0.004175601061433554,-0.39555823802948
16.407463550567627,0.013490334153175354,-0.12894627451896667,0.006735266651958227,-0.24995286762714386
16.5076003074646,0.013676846399903297,-0.11496477574110031,0.006248902529478073,-0.286920964717865
16.61080527305603,-0.011888006702065468,-0.10530254244804382,-0.009542340412735939,-0.35634854435920715
16.71648144721985,-0.014388864859938622,-0.08860523998737335,-0.013769191689789295,-0.26293566823005676
16.819874048233032,-0.016768136993050575,-0.08230239897966385,0.006539694499224424,-0.0088522769510746
16.91490411758423,-0.029420647770166397,-0.0784682109951973,0.017743242904543877,0.18795481324195862
17.014566898345947,-0.03196693956851959,-0.08154036104679108,-0.002668230328708887,0.2967033088207245
17.116260766983032,-0.03457010164856911,-0.08944158256053925,-0.006849917583167553,0.2910235822200775
17.21923804283142,-0.03097592666745186,-0.09178350865840912,-0.008069412782788277,-0.06482599675655365
17.311142206192017,-0.036084406077861786,-0.09046929329633713,0.0014905211282894015,-0.4058544635772705
17.41388726234436,-0.03372184932231903,-0.08085501194000244,-0.0022147211711853743,-0.7268614768981934
17.539171934127808,-0.042727578431367874,-0.060152988880872726,-0.014926312491297722,-0.9287400245666504
17.61276912689209,-0.04776221513748169,-0.04739212244749069,0.0019876162987202406,-0.7769103646278381
17.720524072647095,-0.051772456616163254,-0.028309926390647888,0.014201661571860313,-0.4981463849544525
17.81089448928833,-0.04823099821805954,-0.011101328767836094,0.0050141154788434505,-0.18531455099582672
17.915314435958862,-0.05836786329746246,0.0025811835657805204,-0.0064319404773414135,0.21559485793113708
18.010841608047485,-0.03870520740747452,0.0015701103257015347,0.0064873602241277695,0.44504308700561523
18.114277124404907,-0.04374653846025467,-0.005118891131132841,0.0005817630444653332,0.7134301066398621
18.211084127426147,-0.05011128634214401,-0.007368211634457111,0.007063569966703653,0.8315846920013428
18.310562133789062,-0.05000220239162445,-0.023187551647424698,0.010088522918522358,0.7607505917549133
18.412171840667725,-0.060704462230205536,-0.038660794496536255,0.007752831559628248,0.6283655762672424
18.51033091545105,-0.04860099032521248,-0.05307630077004433,-0.01245909370481968,0.2894337475299835
18.60968565940857,-0.045207757502794266,-0.05921921133995056,-0.005140059627592564,-0.1981966495513916
18.70906901359558,-0.039920225739479065,-0.04831096529960632,-0.006685941480100155,-0.6931765675544739
18.808979988098145,-0.04506388306617737,-0.03617702051997185,0.010112757794559002,-0.7563905119895935
18.908870935440063,-0.0510609894990921,-0.02302074432373047,0.007668500300496817,-0.6368784308433533
19.007492065429688,-0.0646597221493721,-0.010730855166912079,-0.010654110461473465,-0.3429173529148102
19.107388496398926,-0.053448084741830826,0.001443821587599814,0.010860328562557697,-0.15472225844860077
19.20859956741333,-0.04848708584904671,0.003421694040298462,0.0020900119561702013,0.17999836802482605
19.306992769241333,-0.049287568777799606,0.005498949903994799,0.014802167192101479,0.4114096164703369
19.40707755088806,-0.05451561138033867,-0.00011102414282504469,0.0006585657247342169,0.47176530957221985
19.507680892944336,-0.05464654415845871,-0.007162516936659813,-0.00502040097489953,0.4739369750022888
19.607831954956055,-0.05563325062394142,-0.014828572049736977,-2.924623004219029e-05,0.524504542350769
19.70731806755066,-0.05203640088438988,-0.0216127410531044,0.0014310614205896854,0.4465086758136749
19.80712342262268,-0.05411139875650406,-0.03540505841374397,-0.007835322059690952,0.16726724803447723
19.90714693069458,-0.06227949634194374,-0.038495104759931564,0.007398752495646477,-0.22398868203163147
20.00753688812256,-0.05516532436013222,-0.030154356732964516,-0.011020200327038765,-0.4334715008735657
20.107980012893677,-0.051567722111940384,-0.014286193065345287,0.0018769825110211968,-0.5838097333908081
20.208237648010254,-0.047748152166604996,0.004116521682590246,0.0037355676759034395,-0.3368415832519531
20.307050704956055,-0.04726860672235489,0.02042679488658905,-0.0066648307256400585,0.02208840288221836
20.407580375671387,-0.03847562521696091,0.03305770829319954,-8.28681731945835e-05,0.36237460374832153
20.507808685302734,-0.011813059449195862,0.03215382993221283,-0.02502571791410446,0.6320592761039734
20.608540773391724,-8.075695222942159e-05,0.022813355550169945,-0.05404629930853844,0.8282250761985779
20.707232236862183,0.032785020768642426,0.01670742779970169,-0.08770078420639038,0.728485643863678
20.808138370513916,0.05604961887001991,0.007918674498796463,-0.12527146935462952,0.7095156908035278
20.90792465209961,0.058496590703725815,0.0011400243965908885,-0.15225385129451752,0.6225801706314087
21.007787227630615,0.04198913276195526,-0.008144655264914036,-0.1699121594429016,0.34457752108573914
21.107807874679565,0.01796129159629345,-0.008475294336676598,-0.170943021774292,0.23079092800617218
21.20796847343445,0.02410748042166233,-0.0015132433036342263,-0.19216541945934296,0.028439661487936974
21.307926893234253,0.006362970918416977,0.007147080264985561,-0.17919157445430756,0.16919784247875214
21.407068252563477,0.001332492451183498,0.00010188997839577496,-0.19803106784820557,0.293172687292099
21.507799863815308,-0.006416644435375929,0.051138654351234436,-0.20809930562973022,0.17124994099140167
21.60768413543701,-0.0023153768852353096,0.05478693172335625,-0.21971774101257324,0.8959290981292725
21.70743680000305,-0.0029700349550694227,0.027201220393180847,-0.20596645772457123,1.282397747039795
21.807786226272583,0.005776712205260992,0.03379261493682861,-0.2029324769973755,1.1160165071487427
21.907724142074585,-6.735946226399392e-05,0.014797046780586243,-0.21531380712985992,1.0977153778076172
22.00691866874695,-0.009969521313905716,-0.03253933787345886,-0.225605770945549,0.648369550704956
22.107059955596924,0.007985719479620457,-0.04495592787861824,-0.20453812181949615,-0.149831622838974
22.207252025604248,0.024948200210928917,-0.031635720282793045,-0.235050231218338,-0.508781373500824
22.307154655456543,0.0241343155503273,-0.015744972974061966,-0.23181478679180145,-0.5618905425071716
22.407095909118652,0.03544997051358223,-0.0158412866294384,-0.23270313441753387,-0.3681195080280304
22.50690460205078,0.011542505584657192,0.0007919205818325281,-0.20087090134620667,-0.37043827772140503
22.606746435165405,0.01580304652452469,0.028698936104774475,-0.20141182839870453,-0.3330442011356354
22.70740795135498,0.010502472519874573,0.04492248594760895,-0.20070601999759674,0.14611642062664032
