Time (ms),roll,pitch,yaw,thrust
0.11541295051574707,-0.0077370693907141685,-0.0051686423830688,0.0005463254638016224,-1.3936996459960938
0.21622133255004883,-0.001190453302115202,-0.0046874843537807465,-0.0008621307788416743,-1.4018492698669434
0.3163270950317383,-0.0035263586323708296,-0.005741456989198923,0.0038606736343353987,-1.3980485200881958
0.41695713996887207,-0.007700767833739519,-0.003977461718022823,0.003254236886277795,-1.4155992269515991
0.517319917678833,-0.009112979285418987,-0.005859526339918375,0.005278861615806818,-1.4006359577178955
0.6155829429626465,0.00026200670981779695,-0.006847860757261515,0.0015950696542859077,-1.3935457468032837
0.7158157825469971,-0.0033030693884938955,-0.009136549197137356,0.002211970277130604,-1.383028507232666
0.8155078887939453,-0.007832731120288372,-0.0024838114622980356,0.007012646179646254,-1.4414443969726562
0.9161865711212158,-0.0023012079764157534,-0.008140151388943195,-0.00479815574362874,-1.3938825130462646
1.015451192855835,-0.008053592406213284,-0.0032536638900637627,-0.0007162545225583017,-1.4387885332107544
1.1177270412445068,0.001678677275776863,-0.009073183871805668,0.007871904410421848,-1.3866589069366455
1.216101884841919,-0.004054566845297813,0.0009189164848066866,0.0017775328597053885,-1.4658619165420532
1.3163182735443115,-7.825128705007955e-06,-0.008285600692033768,-0.0006363915745168924,-1.398622751235962
1.4162895679473877,0.0018319293158128858,-0.005858055781573057,0.002012447454035282,-1.4230515956878662
1.5170924663543701,-0.0020914743654429913,-0.006033408921211958,-0.0005473157507367432,-1.4177215099334717
1.616513967514038,0.00030393589986488223,-0.00819176435470581,-0.00676214462146163,-1.3960245847702026
1.71708345413208,0.0028427455108612776,-0.008732762187719345,0.004735768772661686,-1.3920557498931885
1.8177344799041748,-0.00030214330763556063,-0.008222830481827259,0.00398001866415143,-1.3966872692108154
1.9154417514801025,-0.004040287341922522,-0.004298673011362553,0.0034779454581439495,-1.4308182001113892
2.0192697048187256,0.002402752870693803,-0.009004753082990646,-0.0043045226484537125,-1.3981311321258545
2.1173102855682373,-0.003454049350693822,-0.004985204432159662,0.0007801101310178638,-1.4337694644927979
2.216451644897461,-0.007896938361227512,-0.0023970333859324455,0.0001743133325362578,-1.4583847522735596
2.3187108039855957,-0.002497426699846983,-0.005851018708199263,0.005086065270006657,-1.4345687627792358
2.4164743423461914,-0.0018305655103176832,-0.007018588483333588,0.0009373346692882478,-0.03871501609683037
2.517521858215332,-0.003971852827817202,-0.015073382295668125,0.0033844811841845512,-0.5154671669006348
2.616750478744507,-0.0003633241867646575,-0.006879246328026056,0.0019506728276610374,-1.0567669868469238
2.715991497039795,0.009395454078912735,-0.014390366151928902,0.008466025814414024,-1.0733658075332642
2.816634178161621,0.0033422778360545635,-0.016888124868273735,0.0019161553354933858,-1.1311455965042114
2.9174368381500244,0.0010585743002593517,-0.007873413152992725,0.0018395123770460486,-1.3248927593231201
3.0161056518554688,-0.000471760518848896,-0.0032181746792048216,0.0020768505055457354,-1.4056472778320312
3.1185948848724365,0.0009207578259520233,-0.008150575682520866,0.0011431955499574542,-1.379289984703064
3.217590093612671,-4.340619489084929e-05,-0.010581237263977528,0.003655519802123308,-1.3769069910049438
3.3178257942199707,-0.002737764036282897,-0.0003791608032770455,-0.002536621643230319,-1.4736961126327515
3.4177374839782715,-0.0022597312927246094,-0.0027065235190093517,0.003759371116757393,-1.4458674192428589
3.51596999168396,-0.0024422495625913143,-0.006423532497137785,0.0016646774020045996,-1.4179587364196777
3.616832733154297,-0.0020927402656525373,-0.005946197547018528,0.00020549751934595406,-1.4269158840179443
3.7158186435699463,-0.00036448854370974004,-0.004840395413339138,0.0028159422799944878,-1.4281989336013794
3.814748764038086,-0.0019374694675207138,-0.01005052775144577,0.0030469039920717478,-1.379551887512207
3.9160823822021484,0.004095002077519894,-0.005425510462373495,0.001735870260745287,-1.4130879640579224
4.015995740890503,-0.0016214902279898524,-0.010301157832145691,-0.000339313322911039,-1.3767415285110474
4.116594552993774,-0.0016884859651327133,-0.005306077655404806,-0.00025063316570594907,-1.4183231592178345
4.219763994216919,0.0014976192032918334,-0.004660013597458601,-0.006491067353636026,-1.4201244115829468
4.316829681396484,0.004195136018097401,-0.008083912543952465,-0.0006361244595609605,-1.3934166431427002
4.41627836227417,-0.001497326884418726,-0.006686200387775898,0.005362474359571934,-1.4106247425079346
4.515844821929932,-0.0026074587367475033,0.0009897471172735095,0.0046379719860851765,-1.42127525806427
4.615159034729004,-0.011172470636665821,0.022332116961479187,0.004204012919217348,-1.3339424133300781
4.715891361236572,-0.014902536757290363,0.03304189816117287,0.008039404638111591,-1.173354983329773
4.815722703933716,-0.019732709974050522,0.033034175634384155,0.008317914791405201,-1.0012791156768799
4.916298151016235,-0.016518505290150642,0.030521279200911522,0.004249881021678448,-0.7418896555900574
5.014490842819214,-0.01601042039692402,0.04485781118273735,-0.0006107159424573183,-0.7421569228172302
5.11564302444458,-0.015384718775749207,0.04126850888133049,0.00617945846170187,-0.5800877213478088
5.215728759765625,-0.012918233871459961,0.05596184730529785,-0.005125520285218954,-0.33757051825523376
5.31484580039978,-0.01312718540430069,0.0782386064529419,0.021055025979876518,0.7099810838699341
5.41617226600647,0.0010962676024064422,-0.009379550814628601,-0.01880677416920662,3.393529176712036
5.515336513519287,-0.009550887160003185,-0.1808716356754303,-0.05161497741937637,2.595290422439575
5.61454176902771,0.02610752172768116,-0.17161665856838226,0.12303560227155685,-0.8137314319610596
5.716315984725952,0.07233186066150665,-0.04100464656949043,0.23785808682441711,-2.0651309490203857
5.8142735958099365,0.0059704906307160854,-0.025190580636262894,0.21823690831661224,-0.48729681968688965
5.915572881698608,0.006431614048779011,-0.003917221911251545,0.1318008303642273,-0.06930280476808548
6.01654314994812,-0.0003841544094029814,-0.012593504041433334,0.0920337662100792,0.6725558042526245
6.116083145141602,0.01936030015349388,-0.011083398945629597,0.11781232804059982,0.38997888565063477
6.215564012527466,0.00829816423356533,-0.0016648528398945928,0.18404163420200348,0.12050919979810715
6.314549207687378,-0.014821456745266914,0.018958404660224915,0.23116014897823334,0.2305281013250351
6.415614128112793,-0.02790048159658909,0.04167164862155914,0.2714172601699829,0.9310764074325562
6.516241550445557,-0.0002471191401127726,0.06342548131942749,0.27108943462371826,0.9456794261932373
6.615315914154053,0.07827529311180115,0.004150524269789457,0.3025664985179901,1.1331453323364258
6.7169482707977295,0.0408625528216362,-0.008710219524800777,0.29772844910621643,0.7448710203170776
6.815142869949341,0.016866471618413925,-0.0785832330584526,0.2814282476902008,0.4878676235675812
6.915363311767578,-0.010117044672369957,-0.06461246311664581,0.294180691242218,-1.0084731578826904
7.014366865158081,-0.025137843564152718,-0.04759521037340164,0.31042176485061646,-1.630260705947876
7.115354776382446,-0.005042320117354393,-0.046716079115867615,0.31087449193000793,-1.459605097770691
7.215176820755005,0.050481583923101425,-0.025564951822161674,0.29018715023994446,-1.170168161392212
7.314953804016113,0.06419514119625092,-0.015501515008509159,0.2559916079044342,-0.8551304340362549
7.414742946624756,0.051343727856874466,-0.008061946369707584,0.20595808327198029,-0.5407631397247314
7.5147624015808105,0.03733294829726219,-0.00883820652961731,0.15838344395160675,-0.2803344130516052
7.61454176902771,0.023713214322924614,-0.011743700131773949,0.10210084915161133,-0.20923371613025665
7.7153589725494385,0.04675052687525749,-0.006151579786092043,0.09571229666471481,-0.2904204726219177
7.81597900390625,0.03483382239937782,-0.009421467781066895,0.09623049199581146,-0.18799029290676117
7.914692640304565,0.02046886272728443,-0.024100178852677345,0.08440099656581879,-0.1997593641281128
8.013869524002075,0.017304372042417526,-0.015691665932536125,0.07720394432544708,-0.33708447217941284
8.115161180496216,0.031872980296611786,0.0029589105397462845,0.06146058812737465,-0.38557326793670654
8.214250564575195,-0.016592741012573242,-0.04558270424604416,0.0680474042892456,-0.21758432686328888
8.314465045928955,-0.10664188116788864,-0.07667363435029984,0.044043730944395065,-0.5858452916145325
8.41594934463501,-0.06422798335552216,-0.04525382071733475,0.04508662968873978,-1.5196954011917114
8.515296936035156,-0.018743064254522324,-0.008362296968698502,0.032332755625247955,-1.5929406881332397
8.614237070083618,0.06883832812309265,0.04624887555837631,0.015877604484558105,-0.9216995239257812
8.714963674545288,0.12782761454582214,0.06204734370112419,0.016927283257246017,0.2062324732542038
8.81374216079712,0.15231795608997345,0.06342703104019165,0.020863451063632965,0.958131730556488
8.915632247924805,0.14425763487815857,0.052481699734926224,0.028690220788121223,1.342434048652649
9.015160083770752,0.004441660828888416,0.0018667997792363167,-0.0013195073697715998,-0.016288772225379944
9.115366458892822,0.011193961836397648,0.006463437341153622,0.011568107642233372,-0.11012484133243561
9.214779376983643,0.016994627192616463,0.022508414462208748,0.015039321966469288,-0.17506243288516998
9.314247608184814,0.04135274887084961,0.025249360129237175,-0.0026894782204180956,0.12983253598213196
9.414237976074219,0.04026704654097557,0.02668096125125885,-0.004256161395460367,0.2951314151287079
9.513593196868896,0.015131278894841671,0.03715349733829498,-0.01622736267745495,0.31204715371131897
9.615329504013062,-0.013183469884097576,0.006403541192412376,-0.013168361969292164,0.47420069575309753
9.714436054229736,-0.05222313478589058,-0.006889577955007553,-0.01657198555767536,0.3177054822444916
9.81425142288208,-0.09757852554321289,-0.0235979612916708,-0.013754821382462978,-0.06531611829996109
9.913738012313843,-0.13501569628715515,-0.0334792360663414,-0.004221045412123203,-0.3602692484855652
10.014777421951294,-0.12963861227035522,-0.0328037329018116,0.004576071631163359,-0.818740963935852
10.113917350769043,-0.10752604901790619,-0.033677827566862106,0.004755972884595394,-0.8819594979286194
10.215952157974243,-0.08094590902328491,-0.029478438198566437,0.01729440875351429,-0.9302834272384644
10.315307855606079,-0.05476420745253563,-0.02264370769262314,0.007569789886474609,-0.8199412226676941
10.41445279121399,-0.027470817789435387,-0.010604547336697578,-0.005278664641082287,-0.6382980346679688
10.513325452804565,-0.03534892573952675,-0.029257871210575104,-0.02084769681096077,-0.3353927433490753
10.613770484924316,-0.03245740383863449,-0.03348347917199135,-0.01885049417614937,-0.675607442855835
10.714730501174927,-0.041482411324977875,-0.04967290535569191,0.0018103382317349315,-0.735474169254303
10.814182996749878,-0.02855505794286728,-0.028868988156318665,0.002805330790579319,-1.059181571006775
10.913596868515015,-0.0445733517408371,-0.00975110661238432,0.006740326061844826,-0.947639524936676
11.014723777770996,-0.0432039313018322,0.018339717760682106,-0.011582883074879646,-0.5178167819976807
11.11421799659729,-0.04753939434885979,0.016668524593114853,-0.017542719841003418,0.13524477183818817
11.214612483978271,-0.025521256029605865,-0.021742593497037888,-0.021426737308502197,3.0362439155578613
11.313761711120605,0.05212422087788582,-0.09681829810142517,-0.0038671556394547224,3.770110845565796
11.415258407592773,0.12916898727416992,-0.1318492889404297,-0.005737504456192255,3.1970553398132324
11.51457667350769,0.1805594116449356,-0.22922851145267487,-0.013269302435219288,1.8202025890350342
11.614999294281006,0.2147417962551117,-0.2582871615886688,-0.0072011095471680164,0.3853684961795807
11.715317249298096,0.24531468749046326,-0.2525143027305603,-0.0006072173709981143,-0.6501429080963135
11.814557075500488,0.25041720271110535,-0.22963763773441315,0.011863834224641323,-0.9652042984962463
11.914174318313599,0.24051466584205627,-0.21455584466457367,0.01626606099307537,-0.940676748752594
12.01383900642395,0.21190045773983002,-0.1970035433769226,-0.009386944584548473,-0.5970234870910645
12.1132230758667,0.193555548787117,-0.1994381546974182,-0.02355033904314041,-0.18117667734622955
12.214151620864868,0.1771918684244156,-0.1955215483903885,-0.008449292741715908,-0.08863218873739243
12.313398838043213,0.16872963309288025,-0.1895265281200409,-0.0027379412204027176,-0.024452542886137962
12.41567349433899,0.16660724580287933,-0.18571043014526367,-0.024319995194673538,0.07024121284484863
12.51511812210083,0.17079274356365204,-0.18003851175308228,-0.0007752594538033009,0.18833862245082855
12.614256381988525,0.17083501815795898,-0.17918488383293152,-0.005464139394462109,0.3058188557624817
12.714903116226196,0.16391529142856598,-0.16207805275917053,0.016765914857387543,0.30514636635780334
12.813194513320923,0.18963943421840668,-0.18013179302215576,0.011600986123085022,0.48510828614234924
12.915360689163208,0.20448380708694458,-0.2514287233352661,-0.011736638844013214,0.545034646987915
13.015973329544067,0.2207740843296051,-0.22142574191093445,-0.022057542577385902,-0.2896595001220703
13.11682677268982,0.21637561917304993,-0.19154854118824005,-0.007250627968460321,-0.40781834721565247
13.215713024139404,0.2164260447025299,-0.17490600049495697,-0.00819834228605032,-0.008850684389472008
13.316415786743164,0.18602751195430756,-0.20411920547485352,-0.018412627279758453,0.6023718118667603
13.414204120635986,0.15217941999435425,-0.2306453436613083,-0.009722577407956123,0.4655671715736389
13.514986991882324,0.16640140116214752,-0.22576233744621277,-0.007220640312880278,0.0712449848651886
13.614312648773193,0.20560230314731598,-0.27111271023750305,-0.004229689482599497,0.1185760423541069
13.715946674346924,0.2256932258605957,-0.3023814857006073,0.0014364318922162056,-1.137079119682312
13.81609582901001,0.23437649011611938,-0.23528935015201569,0.00039662205381318927,-1.8612021207809448
13.913454055786133,0.2214873731136322,-0.17539677023887634,-0.013170832768082619,-1.2100449800491333
14.015886068344116,0.21368525922298431,-0.1315484344959259,-0.004675688687711954,-0.03970026597380638
14.116071701049805,0.20526494085788727,-0.11182324588298798,0.003674861043691635,0.916908323764801
14.215856552124023,0.2036871314048767,-0.11545512825250626,-0.008744731545448303,1.6344903707504272
14.313618659973145,0.20742718875408173,-0.13250362873077393,-0.007357997354120016,1.8105859756469727
14.415331840515137,0.21260295808315277,-0.155986487865448,-0.011905885301530361,1.753562331199646
14.515421390533447,0.2079126238822937,-0.1699448823928833,0.005564555060118437,1.3600236177444458
14.614104747772217,0.20912572741508484,-0.1858779340982437,0.023213310167193413,0.9653126001358032
14.716647386550903,0.215415358543396,-0.19569294154644012,0.006049195304512978,0.6301111578941345
14.814669847488403,0.2220509648323059,-0.1968763917684555,-0.022810250520706177,0.32798147201538086
14.914682626724243,0.20856083929538727,-0.19511458277702332,-0.040766261518001556,0.12559156119823456
15.014800310134888,0.1999988704919815,-0.18825577199459076,-0.031674690544605255,0.041877612471580505
15.114339351654053,0.19397349655628204,-0.18722224235534668,-0.011610821820795536,0.0829354003071785
15.214526176452637,0.21237713098526,-0.1847929209470749,0.003447526367381215,0.11522268503904343
15.313886165618896,0.2089216113090515,-0.1890948861837387,0.012390806339681149,0.21330055594444275
15.414685726165771,0.2079349160194397,-0.18787778913974762,-0.00822162814438343,0.2229103296995163
15.513415336608887,0.2178466022014618,-0.18523269891738892,-0.0008483478450216353,-0.01574319787323475
15.614529132843018,0.2296842783689499,-0.1853371411561966,0.006428229622542858,-0.326410710811615
15.712852478027344,0.23602835834026337,-0.17596790194511414,0.004144151229411364,-0.6540724039077759
15.815267562866211,0.2294933795928955,-0.16153867542743683,-0.008402300998568535,-1.0063374042510986
15.91292119026184,0.22609415650367737,-0.14254221320152283,-0.004888858646154404,-1.1901699304580688
16.013606071472168,0.22556322813034058,-0.12989774346351624,-0.0007590613095089793,-1.2775708436965942
16.113123416900635,0.21363374590873718,-0.10434915870428085,-0.0004219961992930621,-1.2635046243667603
16.213563680648804,0.19614538550376892,-0.0829315185546875,0.004373726435005665,-1.1997766494750977
16.314279317855835,0.20170921087265015,-0.0678810328245163,0.0029127621091902256,-1.008469581604004
16.412939310073853,0.22438116371631622,-0.05151233449578285,-0.004613340832293034,-0.8295185565948486
16.514894008636475,0.23501069843769073,-0.041012052446603775,-0.007905395701527596,-0.6384716033935547
16.61384892463684,0.22628051042556763,-0.0358339324593544,-0.005994649138301611,-0.5399169921875
16.713141679763794,0.2131938338279724,-0.027105508372187614,-0.01308448612689972,-0.49641379714012146
16.813782930374146,0.190606489777565,-0.026993801817297935,0.0005740459309890866,-0.467966765165329
16.914843797683716,0.17583966255187988,-0.022315941751003265,-0.003679444082081318,-0.5142847895622253
17.014606475830078,0.153723806142807,-0.018374133855104446,-0.016157427802681923,-0.5290080904960632
17.124449253082275,0.11294403672218323,-0.009221921674907207,0.012740015052258968,-0.5538671612739563
17.22662663459778,0.08322220295667648,-0.0037120000924915075,-0.002465514000505209,-0.39521363377571106
17.323148012161255,0.04682154953479767,0.000700946431607008,0.002945410320535302,-0.2367396503686905
17.41780710220337,0.01753290928900242,0.00036647357046604156,-0.0507461242377758,-0.12487570196390152
17.517674207687378,-0.0096798837184906,-0.003489371854811907,-0.07400073111057281,-0.10166274011135101
17.62717318534851,-0.019995789974927902,-0.01156493928283453,-0.11251939833164215,-0.13607271015644073
17.72122859954834,-0.008471815846860409,-0.02185455523431301,-0.13304339349269867,-0.24439069628715515
17.8197181224823,0.0036067243199795485,-0.020438548177480698,-0.14680366218090057,-0.3935234844684601
17.917584896087646,0.01106705516576767,-0.01716531813144684,-0.16603824496269226,-0.45930132269859314
18.01931667327881,0.036094896495342255,-0.00803004577755928,-0.18618203699588776,-0.410030335187912
18.127801418304443,0.04677845537662506,0.0023324540816247463,-0.19839753210544586,-0.18419761955738068
18.23747491836548,0.0541040301322937,0.0011237163562327623,-0.20662476122379303,-0.03281652182340622
18.33166766166687,0.022870657965540886,-0.008464504033327103,-0.2028503119945526,0.021796708926558495
18.43856692314148,0.02632564678788185,-0.017358889803290367,-0.20509782433509827,-0.03651457279920578
18.54529857635498,0.012817708775401115,-0.01017564907670021,-0.19275213778018951,-0.26037877798080444
18.634984731674194,0.007382050156593323,-0.02415785938501358,-0.20292071998119354,-0.3472432792186737
18.71964120864868,0.008534329012036324,-0.035736992955207825,-0.21358875930309296,-0.28724271059036255
18.820415496826172,0.011606699787080288,-0.006693269591778517,-0.2295117974281311,-0.6253776550292969
18.92548131942749,0.037593692541122437,0.015838898718357086,-0.23360352218151093,-0.40220052003860474
19.031071186065674,0.03389912471175194,0.03573882207274437,-0.22791685163974762,0.06353860348463058
19.150955200195312,0.02186562493443489,0.03619940206408501,-0.22288544476032257,0.6005889177322388
19.237814903259277,0.002922861138358712,0.048598065972328186,-0.21600958704948425,0.6228210926055908
19.333944082260132,-0.016405487433075905,0.05614473670721054,-0.21674315631389618,0.6427996754646301
19.435457944869995,0.0034269250463694334,-0.011014139279723167,-0.22496049106121063,1.0454959869384766
19.525151252746582,0.013572345487773418,-0.05308753624558449,-0.1972271203994751,0.020594147965312004
