Time (ms),roll,pitch,yaw,thrust
0.11323690414428711,0.002655496820807457,0.003214069874957204,-0.0030630812980234623,-1.5010874271392822
0.21424365043640137,0.0032848515547811985,-0.00024344702251255512,0.002656676108017564,-1.4793020486831665
0.3132197856903076,-0.0007254041847772896,0.0023179466370493174,0.003619251074269414,-1.504602313041687
0.4137601852416992,0.003565883729606867,-0.003256527939811349,0.003203911939635873,-1.4630972146987915
0.5134572982788086,0.003394438186660409,-0.002907154383137822,-0.00472524156793952,-1.4775643348693848
0.6151456832885742,0.004326030611991882,-0.004907579626888037,-0.005550678353756666,-1.455467700958252
0.7157387733459473,0.0013941195793449879,-0.0074000284075737,-0.006887870375066996,-1.4333016872406006
0.8144164085388184,0.0017781374044716358,0.001407137606292963,-0.0025302418507635593,-1.508005142211914
0.9154319763183594,0.002104995772242546,-0.00696352357044816,-0.008282825350761414,-1.4469105005264282
1.0149781703948975,0.0030451747588813305,0.0026554304640740156,-0.0009385511511936784,-1.5201457738876343
1.115967035293579,0.0038904049433767796,-0.002704793121665716,-0.0007578837685286999,-1.4793699979782104
1.2153253555297852,0.0020343810319900513,0.0025211856700479984,0.006791267544031143,-1.5174572467803955
1.3152093887329102,0.00454376544803381,-0.0025507519021630287,0.010046836920082569,-1.481940746307373
1.4139189720153809,0.003503180108964443,0.003061827505007386,-0.0033431313931941986,-1.5305862426757812
1.5130746364593506,0.0027005223091691732,-0.0016046542441472411,-0.013571622781455517,-1.4960603713989258
1.6155714988708496,-0.0008992401999421418,-0.0070898262783885,0.0021801001857966185,-1.442984938621521
1.7141947746276855,-0.0007622615084983408,-0.000918684818316251,-0.0026238730642944574,-1.4986015558242798
1.8149595260620117,0.0035759706515818834,0.0024723687674850225,0.0021521029993891716,-1.521562099456787
1.9154272079467773,-0.0009565523942001164,-0.00293541606515646,0.0013954289024695754,-1.4776873588562012
2.0129265785217285,0.007830421440303326,0.0022003839258104563,-0.005322863347828388,-1.5205621719360352
2.112217664718628,0.0007963576936163008,-0.002718161093071103,-0.0011104985605925322,-1.479647159576416
2.2137303352355957,0.002425382612273097,-0.0030064352322369814,0.0006801486015319824,-1.4784483909606934
2.314789056777954,0.003026833524927497,-0.0009154621511697769,-9.247536218026653e-05,-1.5029908418655396
2.413051128387451,-4.057956175529398e-05,-0.011999165639281273,-0.0002557647821959108,0.06262269616127014
2.5128183364868164,0.009286481887102127,-0.01915326900780201,0.001386258634738624,-0.3185184597969055
2.613269805908203,0.016598602756857872,-0.023230131715536118,0.002493551466614008,-0.6757066249847412
2.7130870819091797,0.005827424582093954,-0.013904065825045109,0.006385509856045246,-1.1119369268417358
2.8131422996520996,-0.0014720663893967867,-0.009357408620417118,0.0034148667473345995,-1.2813150882720947
2.913149118423462,0.006845311727374792,-0.004481170792132616,0.005892518907785416,-1.3894827365875244
3.0129451751708984,0.0027371614705771208,-0.00798792764544487,-0.009646530263125896,-1.3664389848709106
3.112708806991577,0.002465160796418786,-0.01366216130554676,-0.005417846608906984,-1.3371243476867676
3.212301731109619,-0.0003028873761650175,-0.0034122720826417208,0.004939730279147625,-1.457580804824829
3.3125243186950684,0.002679774770513177,-0.0008297403110191226,-0.0009750131866894662,-1.4805153608322144
3.4134674072265625,0.0005939993425272405,-0.0016077625332400203,0.006096411030739546,-1.4856170415878296
3.512742042541504,-1.3107460290484596e-05,0.0015946734929457307,-6.228934216778725e-05,-1.5166893005371094
3.613898515701294,0.003662427421659231,-0.0016899845795705914,0.0038340340834110975,-1.4835700988769531
3.714634656906128,0.0030837079975754023,0.0018164829816669226,-0.0008662546752020717,-1.5073233842849731
3.814296007156372,0.0019626719877123833,-0.00295979343354702,-0.0019036971498280764,-1.472903847694397
3.913757085800171,-0.0008026205468922853,-0.007212931755930185,-0.006533065810799599,-1.4400582313537598
4.012706995010376,0.004404192790389061,-0.0018809693865478039,0.00040278994129039347,-1.47537100315094
4.1122002601623535,0.0060568139888346195,0.0025369052309542894,0.0023736541625112295,-1.5094342231750488
4.21297025680542,0.004191838204860687,-0.0006860701832920313,0.0051659042946994305,-1.4863876104354858
4.313190937042236,0.003748971736058593,0.002208914840593934,-0.00038334939745254815,-1.50728178024292
4.4137163162231445,0.002860418753698468,-0.0022425793576985598,-0.0033073679078370333,-1.474825382232666
4.514085531234741,0.003876923583447933,0.001956024207174778,0.0035386718809604645,-1.5055568218231201
4.61353874206543,-0.005119376350194216,0.018501771613955498,0.0055737667717039585,-1.4149744510650635
4.713568925857544,-0.009773997589945793,0.02813156321644783,0.0034017323050647974,-1.2499172687530518
4.8131020069122314,-0.011418967507779598,0.030621079728007317,0.0017197596607729793,-1.1403441429138184
4.912588119506836,-0.006833882536739111,0.032611433416604996,0.003597693983465433,-1.0150316953659058
5.012342929840088,-0.011566881090402603,0.029885515570640564,-0.00039154954720288515,-0.8869646787643433
5.1127331256866455,-0.008533106185495853,0.02817288227379322,-0.00786727387458086,-0.664911150932312
5.212344169616699,-0.014361105859279633,0.04734458774328232,0.011162621900439262,0.24811245501041412
5.312624931335449,0.01339871808886528,0.006894185207784176,-0.02221997082233429,2.2178781032562256
5.413995265960693,0.00823911838233471,-0.18020808696746826,-0.03604442998766899,3.3896281719207764
5.513801097869873,-0.02369440533220768,-0.19659793376922607,0.06501422822475433,-0.5955373644828796
5.612466096878052,-0.008894020691514015,-0.034655384719371796,0.1541077345609665,-2.3379225730895996
5.712544202804565,-0.0738457664847374,-0.015220744535326958,0.1926504671573639,-0.1743534952402115
5.815446853637695,-0.03747286647558212,0.0041562337428331375,0.18249092996120453,0.5034139752388
5.9136717319488525,-0.010801849886775017,-0.01735639199614525,0.14313659071922302,1.031812071800232
6.014429092407227,0.01404405478388071,-0.03021829016506672,0.12273808568716049,0.8290824890136719
6.116178035736084,0.014219884760677814,-0.02817680314183235,0.10397626459598541,0.19073013961315155
6.215195178985596,4.101745435036719e-05,-0.008260960690677166,0.16983740031719208,-0.290365993976593
6.314794301986694,-0.012839616276323795,-0.001357794739305973,0.23820509016513824,-0.1396046131849289
6.414767265319824,-0.0033552281092852354,0.06895659118890762,0.27264371514320374,-0.4529547393321991
6.511318206787109,0.002026910660788417,0.09555336087942123,0.2748880684375763,0.48262104392051697
6.613585472106934,0.008491385728120804,0.07954133301973343,0.3165477216243744,1.3813002109527588
6.712230205535889,0.05811285227537155,-0.009168772958219051,0.2797660231590271,1.645345687866211
6.811970233917236,0.0715285986661911,-0.07398007065057755,0.2732637822628021,0.6838219165802002
6.912747621536255,0.05212518572807312,-0.11423797160387039,0.2964397370815277,-0.6677411198616028
7.01144814491272,0.028175240382552147,-0.132041335105896,0.3038865625858307,-1.933985710144043
7.111312627792358,0.008110100403428078,-0.11418581753969193,0.31739333271980286,-2.688767671585083
7.211470365524292,-0.09120135009288788,-0.12072695791721344,0.2850976586341858,-2.8851330280303955
7.312288522720337,-0.049188341945409775,-0.09816749393939972,0.25176239013671875,-3.0290396213531494
7.413143873214722,0.07702699303627014,-0.06767740845680237,0.22298316657543182,-2.9120962619781494
7.512461423873901,0.08071202039718628,-0.01674710214138031,0.1681174635887146,-2.137153148651123
7.612758636474609,0.08905494213104248,-0.0051552895456552505,0.12359118461608887,-0.9966690540313721
7.713087797164917,0.04967809095978737,0.023182295262813568,0.10921085625886917,-0.6266161799430847
7.812138319015503,-0.038180217146873474,0.04084991663694382,0.09530564397573471,-0.03784247487783432
7.912007808685303,-0.1138710230588913,0.10484693199396133,0.06922385096549988,0.5180352926254272
8.011287450790405,-0.09678442031145096,0.08638955652713776,0.067873015999794,1.6228394508361816
8.112504959106445,-0.07186175137758255,0.02858472801744938,0.07024624943733215,1.7953070402145386
8.211237907409668,-0.024404648691415787,-0.0022424873895943165,0.05758689343929291,0.9997923374176025
8.3117356300354,0.02576184645295143,-0.02001669444143772,0.038767699152231216,0.2848382592201233
8.412496566772461,0.055167052894830704,-0.024456359446048737,0.04357564449310303,-0.3314686715602875
8.513590097427368,0.06211001053452492,-0.018361466005444527,0.0349307507276535,-0.6122367978096008
8.612046957015991,0.032647754997015,-0.0506286583840847,0.01333566289395094,-0.47542211413383484
8.712284088134766,0.05871766433119774,-0.0660131573677063,0.008204103447496891,-1.1270101070404053
8.810938835144043,0.050040073692798615,-0.036253396421670914,0.030625570565462112,-1.5715023279190063
8.912179231643677,-0.07738948613405228,0.052249521017074585,0.025078460574150085,-1.4040368795394897
9.012484073638916,-0.0015951788518577814,0.0008273042622022331,0.00032588880276307464,0.0746425986289978
9.112785339355469,0.009129715152084827,-0.006056234240531921,0.10374036431312561,0.17550703883171082
9.211530923843384,0.013161683455109596,-0.0030663199722766876,0.05026259645819664,-0.10505405813455582
9.311241149902344,0.011616316623985767,0.004747903905808926,0.007795562501996756,-0.23049432039260864
9.412947177886963,0.031023919582366943,0.009094120003283024,-0.0076379901729524136,0.02867097221314907
9.511649370193481,-0.01785006932914257,0.05461091920733452,-0.012641080655157566,-0.26030632853507996
9.611445426940918,-0.08293736726045609,0.10772161930799484,-0.020957399159669876,-0.04794030636548996
9.71237301826477,-0.03627564013004303,0.07233444601297379,-0.01576761156320572,1.0928831100463867
9.813501119613647,0.019082453101873398,0.023417692631483078,-0.016640763729810715,1.4600238800048828
9.911489725112915,0.07002360373735428,-0.030714169144630432,-0.015894858166575432,1.005670189857483
10.011408805847168,0.16506336629390717,0.04141099750995636,-0.0009166855015791953,-0.04238776117563248
10.113342523574829,0.13745765388011932,0.0014604500029236078,0.005312593653798103,0.5689364075660706
10.212906122207642,0.0792316347360611,-0.038775309920310974,0.00011687367805279791,0.15039105713367462
10.312119960784912,0.07583457231521606,-0.005330326501280069,-0.015155578032135963,-0.6211307644844055
10.413984060287476,-0.05889677256345749,-0.030446337535977364,-0.02361886203289032,-0.928146243095398
10.512734413146973,-0.06238216534256935,-0.045952219516038895,0.002062433399260044,-0.7516942024230957
10.61191725730896,-0.1594042181968689,0.030484803020954132,0.005791414994746447,-1.1041632890701294
10.712200403213501,-0.09483421593904495,-0.04207080230116844,-0.005103244446218014,-0.06284529715776443
10.812091588973999,-0.08804391324520111,-0.0014653505058959126,-0.0028419834561645985,-0.7815001606941223
10.911647319793701,-0.10878340154886246,-0.10078654438257217,-0.007494363002479076,-0.25179335474967957
11.01323127746582,-0.033096227794885635,-0.079524926841259,-0.0002026291040237993,-1.5167601108551025
11.112702369689941,0.025013333186507225,-0.0677594393491745,-0.0027015439700335264,-1.6727826595306396
11.213159799575806,0.07129558175802231,-0.06034979969263077,0.0001534639304736629,0.6144547462463379
11.310349941253662,0.14130689203739166,-0.07938505709171295,-0.00955694168806076,2.2247519493103027
11.413099527359009,0.1967998892068863,-0.13192255795001984,-0.012806480750441551,2.6491169929504395
11.511285543441772,0.2491641491651535,-0.18211714923381805,-0.01434462983161211,2.07654070854187
11.611066579818726,0.2633734345436096,-0.2253052145242691,-0.0026167286559939384,1.1655280590057373
11.71067500114441,0.27085909247398376,-0.21052035689353943,-0.006730709224939346,-0.025360751897096634
11.811858177185059,0.24349896609783173,-0.21681834757328033,-0.004247490782290697,-0.1774931401014328
11.910589456558228,0.2034594863653183,-0.2252291738986969,-0.028449876233935356,-0.3213689923286438
12.012073040008545,0.18185307085514069,-0.2148657739162445,-0.022852502763271332,-0.463768869638443
12.110925197601318,0.16737768054008484,-0.20882897078990936,0.0030566214118152857,-0.45730847120285034
12.21170711517334,0.16681326925754547,-0.19876405596733093,-0.004134247079491615,-0.3664446771144867
12.311627388000488,0.18192586302757263,-0.21049289405345917,-0.0027597977314144373,-0.19935362040996552
12.410618543624878,0.19519683718681335,-0.203672394156456,-0.008497683331370354,-0.3288675844669342
12.511406183242798,0.22351539134979248,-0.2029361128807068,-0.0003878315328620374,-0.32952016592025757
12.613273620605469,0.23611631989479065,-0.18998652696609497,0.0019257935928180814,-0.22640720009803772
12.71278190612793,0.22665919363498688,-0.20579901337623596,4.734249159810133e-05,0.06800704449415207
12.812433242797852,0.20583872497081757,-0.205688938498497,-0.01920214667916298,0.02628055028617382
12.912498474121094,0.18837739527225494,-0.20624081790447235,-0.014839572831988335,-0.09556064754724503
13.013373613357544,0.18106968700885773,-0.21845920383930206,-0.0005169382784515619,-0.15194202959537506
13.113452911376953,0.17460930347442627,-0.21731485426425934,-0.0007725708419457078,-0.28053829073905945
13.213654279708862,0.16524669528007507,-0.2054750621318817,2.751619649643544e-05,-0.39539384841918945
13.311666011810303,0.18608993291854858,-0.19466692209243774,0.00408737501129508,-0.27900466322898865
13.411361932754517,0.19443906843662262,-0.18113112449645996,-0.011541570536792278,-0.20664262771606445
13.514137744903564,0.2136905938386917,-0.18430760502815247,-0.0057537793181836605,0.13704223930835724
13.612688302993774,0.2339976727962494,-0.18669568002223969,0.013566989451646805,0.25945010781288147
13.712281942367554,0.2399374395608902,-0.18924511969089508,-0.021123353391885757,0.32353121042251587
13.813486337661743,0.2239849865436554,-0.19482506811618805,-0.018762605264782906,0.27553021907806396
13.913607120513916,0.20708689093589783,-0.1767674833536148,-0.003275630995631218,0.10728786885738373
14.011236906051636,0.20044419169425964,-0.17700490355491638,0.007201115135103464,0.18296460807323456
14.113584280014038,0.17979636788368225,-0.18001481890678406,-0.007215710356831551,0.3738562762737274
14.213749408721924,0.18291974067687988,-0.195837140083313,-0.011579914018511772,0.4145379364490509
14.312675714492798,0.1780077964067459,-0.20354220271110535,-0.008892074227333069,0.05801895260810852
14.413403987884521,0.17850692570209503,-0.21452085673809052,0.0034192397724837065,-0.18762272596359253
14.512820720672607,0.19443148374557495,-0.2054554671049118,-0.0009131687693297863,-0.2886246144771576
14.611676216125488,0.18433877825737,-0.20723550021648407,-0.005687362980097532,-0.20608241856098175
14.71187424659729,0.1820995807647705,-0.20232702791690826,-0.003519395599141717,-0.2572678029537201
14.812439441680908,0.19537052512168884,-0.2121037095785141,-0.010031518526375294,-0.41060736775398254
14.912087440490723,0.20351168513298035,-0.2110322117805481,0.005707948002964258,-0.6537352204322815
15.011005163192749,0.2172142118215561,-0.18829086422920227,0.009720684960484505,-1.109704852104187
15.112248420715332,0.21123257279396057,-0.16906791925430298,0.007743782363831997,-1.5056657791137695
15.211199283599854,0.2119494527578354,-0.1392328292131424,-0.008620287291705608,-1.6175888776779175
15.31242036819458,0.18861399590969086,-0.1111195906996727,-0.02539905719459057,-1.3802145719528198
15.411479234695435,0.19237525761127472,-0.09209145605564117,-0.02801366150379181,-1.1421470642089844
15.512174367904663,0.20527713000774384,-0.07202506065368652,-0.027814310044050217,-0.9652079343795776
15.611542224884033,0.20747201144695282,-0.05551251024007797,0.00011896561045432463,-0.7810973525047302
15.711030960083008,0.20506231486797333,-0.04191775247454643,0.017545225098729134,-0.5931553244590759
15.812790155410767,0.17758049070835114,-0.03748993203043938,0.013943146914243698,-0.4561828076839447
15.91287899017334,0.15756192803382874,-0.03654161095619202,-0.0032753327395766973,-0.4324595332145691
16.01134991645813,0.13083209097385406,-0.027722908183932304,0.003312374697998166,-0.521750807762146
16.11158061027527,0.07617209106683731,-0.025066403672099113,-0.006064478307962418,-0.561771810054779
16.210293292999268,0.010471690446138382,-0.024180438369512558,-0.0221470408141613,-0.5992954969406128
16.311506032943726,-0.04041646793484688,-0.016596928238868713,-0.07048118114471436,-0.6710134744644165
16.411498546600342,-0.06289276480674744,-0.007446318864822388,-0.09761019051074982,-0.5083828568458557
16.51071310043335,-0.06370239704847336,0.0010241350391879678,-0.12905676662921906,-0.3025185167789459
16.611138343811035,-0.0423005074262619,0.0016920921625569463,-0.1722058653831482,-0.2077087014913559
16.71187162399292,-0.015306811779737473,-0.0006916912971064448,-0.16253593564033508,-0.07144161313772202
16.812275648117065,0.008111311122775078,-0.011595250107347965,-0.16862332820892334,0.06499265134334564
16.92867374420166,0.03881867974996567,-0.008025445975363255,-0.21340224146842957,-0.1822732388973236
17.03624129295349,0.049968644976615906,-0.015030339360237122,-0.2094830721616745,-0.2864949405193329
17.120226621627808,0.050060294568538666,-0.014193177223205566,-0.17988809943199158,-0.32289955019950867
17.21644639968872,0.02498258650302887,-0.021937306970357895,-0.18719317018985748,-0.43128636479377747
17.327417850494385,0.016576185822486877,-0.027021389454603195,-0.20491904020309448,-0.4237058162689209
17.437393188476562,0.002226795069873333,-0.02186395227909088,-0.21208053827285767,-0.5616335272789001
17.515450716018677,0.008094766177237034,-0.03796379640698433,-0.20482008159160614,-0.47254031896591187
17.618274688720703,-0.003395580453798175,-0.025223970413208008,-0.2004023790359497,-0.6324048638343811
17.72662329673767,0.001058693858794868,-0.035188619047403336,-0.22806011140346527,-0.7029460072517395
17.817787408828735,-0.006056457292288542,-0.0254934411495924,-0.2337559014558792,-0.6218333840370178
17.9269540309906,-0.02626620978116989,-0.0024424633011221886,-0.22644679248332977,-0.6389966607093811
18.02262592315674,-0.03348787873983383,0.0038649423513561487,-0.2301321029663086,-0.47331640124320984
18.13660740852356,-0.00934223085641861,0.03146827965974808,-0.221294566988945,-0.3438992202281952
18.24458384513855,0.006033164449036121,0.032870933413505554,-0.2105112075805664,0.3261425495147705
18.33613109588623,-0.003220499027520418,-0.012179560959339142,-0.21986888349056244,0.7153181433677673
18.422595024108887,0.00236456748098135,0.012780372053384781,-0.20554892718791962,-0.1777006834745407
