Time (ms),roll,pitch,yaw,thrust
0.11777162551879883,-0.002146585378795862,-0.006053349934518337,0.0009425228927284479,-1.388189673423767
0.2189629077911377,-0.0016294758534058928,-0.0029277955181896687,0.004237936343997717,-1.4126837253570557
0.3175392150878906,-0.0006901048473082483,-0.009616493247449398,0.005213532596826553,-1.3716099262237549
0.4186360836029053,-0.0008017462678253651,-0.0005980284768156707,0.001615055138245225,-1.4441531896591187
0.5170111656188965,-0.002508685924112797,-0.007888097316026688,0.0006991124828346074,-1.3859078884124756
0.6183578968048096,-0.001860235701315105,-0.0065526110120117664,0.002632319461554289,-1.4083716869354248
0.7197592258453369,-0.003340083174407482,-0.007767006289213896,-0.00033523753518238664,-1.3981499671936035
0.8173296451568604,-0.0003309427702333778,-0.0016899952897801995,-0.0014780290657654405,-1.4509199857711792
0.917433500289917,-0.0017662857426330447,-0.013232926838099957,-0.006857533007860184,-1.365490436553955
1.0164313316345215,-0.0017894254997372627,-0.0034676778595894575,0.002991067711263895,-1.4477412700653076
1.117835521697998,-0.0003399441484361887,-0.010808323509991169,0.0005557637778110802,-1.3846029043197632
1.2194838523864746,-0.0014277047012001276,-0.004938199184834957,0.001790531910955906,-1.4315073490142822
1.3179998397827148,-0.0011456131469458342,-0.008996094577014446,-0.0013727603945881128,-1.4034626483917236
1.417353630065918,-0.0006314158090390265,-0.0036927086766809225,-0.0017690068343654275,-1.4429444074630737
1.517806053161621,-7.813438423909247e-05,-0.009396569803357124,-0.002453485270962119,-1.3992180824279785
1.616664171218872,-0.0013390162494033575,-0.0036419432144612074,-0.0052713388577103615,-1.452078938484192
1.7171010971069336,-0.0014101510168984532,-0.005937184207141399,0.006244629621505737,-1.4271876811981201
1.8197433948516846,-0.0005504009313881397,-0.00662623206153512,-0.004869295284152031,-1.4263795614242554
1.917457103729248,-0.00022751084179617465,-0.002859407104551792,0.000840048654936254,-1.45247220993042
2.017287492752075,-0.0016762440791353583,-0.005168551579117775,-0.0016556346090510488,-1.4303293228149414
2.1186773777008057,0.00014291764819063246,-0.003747493727132678,0.004874934908002615,-1.4380176067352295
2.2180020809173584,0.0,0.0,0.0,0.0
2.318129777908325,0.003946339711546898,-0.019167376682162285,-0.0009271867456845939,-0.21220998466014862
2.416952610015869,0.004900314379483461,-0.02175074629485607,-0.0010960305808112025,-0.6904296278953552
2.5176377296447754,0.00422475254163146,-0.016696104779839516,-0.0016595079796388745,-1.0589683055877686
2.6165578365325928,-3.6133202229393646e-05,-0.01581229642033577,-0.0012580693000927567,-1.1831361055374146
2.7174620628356934,0.00012345248251222074,-0.010196419432759285,0.004429561551660299,-1.3228278160095215
2.8176181316375732,0.0008485583821311593,-0.00429576076567173,-0.0015454301610589027,-1.4247256517410278
2.916887044906616,-0.0006351618212647736,-0.0035353212151676416,0.0003306531871203333,-1.4459298849105835
3.0174622535705566,-0.00011004865518771112,-0.00807688757777214,-0.013512305915355682,-1.4061002731323242
3.1162633895874023,0.004501779563724995,-0.003354499116539955,-0.007709881290793419,-1.4574522972106934
3.2178778648376465,0.0002283951616846025,-0.006972438655793667,-0.0002495752996765077,-1.4267525672912598
3.318779945373535,-0.0012891038786619902,-0.002480514347553253,0.007539375685155392,-1.4675427675247192
3.4164319038391113,-0.0012977096484974027,-0.009403371252119541,0.003807628992944956,-1.4120173454284668
3.517636299133301,3.650106009445153e-05,0.0011146384058520198,0.00011519440886331722,-1.492777943611145
3.6198155879974365,-0.0012193928705528378,-0.00667181983590126,0.005036649294197559,-1.4254450798034668
3.7183961868286133,-0.0007275388925336301,-0.0033496699761599302,0.003966826014220715,-1.4459847211837769
3.8182287216186523,-0.000845896836835891,-0.007163370028138161,0.003027702448889613,-1.4296729564666748
3.917870283126831,-0.0017252762336283922,-0.003218196565285325,-0.0011096333619207144,-1.4557174444198608
4.019053936004639,-0.0018495703116059303,-0.00876146275550127,0.004394444637000561,-1.416413426399231
4.119384527206421,-0.001651216298341751,-0.005017511080950499,-0.0036769427824765444,-1.4333109855651855
4.215646743774414,-0.000987511477433145,-0.005201245192438364,-0.002484008902683854,-1.42293381690979
4.31680154800415,-0.00249753356911242,-0.0035171634517610073,-0.0019505269592627883,-1.4419173002243042
4.415776014328003,-0.0062786247581243515,0.007802508305758238,0.0015283310785889626,-1.3808289766311646
4.516305685043335,-0.012258600443601608,0.025165418162941933,0.00021315419871825725,-1.1994671821594238
4.61749267578125,-0.013629944995045662,0.04324241355061531,0.0018400333356112242,-1.0101311206817627
4.71648907661438,-0.028205428272485733,0.02836175635457039,-0.005348879378288984,-0.7230758666992188
4.816929578781128,-0.026555227115750313,0.02557484060525894,-0.005693010985851288,-0.5143434405326843
4.9167351722717285,-0.03183913603425026,0.016555149108171463,0.013620873913168907,0.045421700924634933
5.016655206680298,-0.02223811112344265,-0.02074400708079338,0.013154799118638039,1.064306378364563
5.117620468139648,-0.0004922925727441907,-0.15029235184192657,-0.040019091218709946,1.786651849746704
5.217247247695923,0.018414799124002457,-0.1793123483657837,0.04682458937168121,-0.9589076042175293
5.316506624221802,0.034708358347415924,-0.037223923951387405,0.16488029062747955,-2.8588204383850098
5.416268587112427,0.02580326236784458,0.0535445474088192,0.19689400494098663,-1.6360621452331543
5.5153489112854,0.01810043305158615,0.06194554269313812,0.1705104261636734,0.762566089630127
5.616031885147095,0.003520753001794219,0.008190097287297249,0.13246917724609375,1.8147070407867432
5.7159364223480225,0.020210403949022293,-0.01611974462866783,0.10222375392913818,1.1900882720947266
5.816220283508301,0.041211191564798355,-0.009775952436029911,0.12701426446437836,0.290446013212204
5.916024684906006,-0.013628402724862099,-0.028624610975384712,0.13639020919799805,0.1020505279302597
6.01573634147644,-0.034647610038518906,-0.02159816026687622,0.22113215923309326,-0.1549072116613388
6.115615367889404,-0.03697073087096214,0.017346464097499847,0.2529551386833191,-0.5849317908287048
6.215883255004883,-0.019747108221054077,0.030527422204613686,0.2528161108493805,0.05117591470479965
6.3162641525268555,0.03133183717727661,0.05915306508541107,0.27241411805152893,0.1723153442144394
6.415768623352051,0.10975999385118484,0.03829075023531914,0.285841166973114,0.9350148439407349
6.515664339065552,0.10002706199884415,0.043241869658231735,0.2679431438446045,0.6877543330192566
6.615882158279419,0.05222263187170029,0.05772750824689865,0.27985280752182007,0.5518046617507935
6.71643328666687,0.0023525680880993605,0.04062614217400551,0.2813833951950073,0.9482541084289551
6.8157594203948975,-0.01801122911274433,-0.016390914097428322,0.2686128616333008,0.6283341646194458
6.916626691818237,-0.04461592808365822,-0.026089219376444817,0.28363513946533203,0.0899132639169693
7.0154876708984375,-0.030802108347415924,-0.05197616294026375,0.2950371205806732,-0.3062961995601654
7.117072105407715,0.0031637810170650482,-0.07596032321453094,0.25477680563926697,-0.9000615477561951
7.216476202011108,0.018611684441566467,-0.0841890349984169,0.21390922367572784,-1.4511572122573853
7.31615424156189,0.03582615777850151,-0.06996443122625351,0.15487536787986755,-1.70784592628479
7.416384220123291,0.028840618208050728,0.010029071941971779,0.11814283579587936,-1.6568368673324585
7.515577793121338,0.07097814977169037,0.02889363467693329,0.1256743222475052,-0.48648831248283386
7.61616063117981,0.02640686370432377,-0.014317285269498825,0.09827185422182083,0.30959469079971313
7.716676712036133,0.05065501108765602,-0.028818629682064056,0.0770258754491806,0.013025829568505287
7.817481517791748,0.04572096839547157,-0.015963969752192497,0.04746314510703087,-0.2815251350402832
7.9160847663879395,0.011450116522610188,-0.0169777013361454,0.039453160017728806,-0.2968551516532898
8.016807794570923,0.005655550863593817,-0.016162127256393433,0.04607202485203743,-0.2967807352542877
8.115432739257812,0.04034096375107765,-0.019591862335801125,0.0418497733771801,-0.4325437843799591
8.215364456176758,0.09685903042554855,-0.09350156038999557,0.03310731053352356,-0.5394538044929504
8.315573930740356,0.02594689279794693,-0.0973367840051651,0.027768265455961227,-1.6709957122802734
8.415529489517212,-0.004150486551225185,-0.06937962770462036,0.014015793800354004,-2.084501028060913
8.515629529953003,-0.011728590354323387,-0.02539856731891632,0.012797188945114613,-1.8856137990951538
8.616251945495605,-0.0037700498942285776,0.017014723271131516,0.01682428829371929,-1.267003059387207
8.716479778289795,0.0293579138815403,0.05825260654091835,0.008089288137853146,-0.4040525257587433
8.816073894500732,0.11239714175462723,0.10217930376529694,0.015137586742639542,0.40943026542663574
8.915534734725952,-0.04925116151571274,-0.022594982758164406,0.0879007875919342,0.2508985698223114
9.016672372817993,-0.06763789802789688,-0.02596844546496868,0.06059335544705391,-0.23560576140880585
9.115900039672852,0.016649650409817696,-0.005621942225843668,0.01742638275027275,-0.7716320157051086
9.215082883834839,0.09263038635253906,-0.05552160367369652,-0.018670998513698578,-0.1324833184480667
9.315648794174194,-0.005324513651430607,-0.11895743757486343,-0.024414990097284317,-0.3237498700618744
9.41684889793396,-0.16616058349609375,-0.09562017023563385,-0.022962816059589386,-2.4325504302978516
9.515069723129272,-0.15654976665973663,-0.019731545820832253,-0.019166409969329834,-2.5478971004486084
9.616072654724121,-0.13965126872062683,0.032933712005615234,-0.012012704275548458,-1.249340295791626
9.716368675231934,-0.14913848042488098,0.06577922403812408,-0.014169770292937756,0.020785002037882805
9.816598892211914,-0.11892271041870117,0.00017499460955150425,-0.009490267373621464,0.7203166484832764
9.915857076644897,0.015933578833937645,0.03127683326601982,-0.0009624462109059095,0.14649952948093414
10.01598596572876,0.0386914424598217,0.05135972052812576,-0.006772714201360941,0.31894639134407043
10.116704940795898,0.03442864120006561,0.04274917393922806,-0.019021324813365936,0.7449700832366943
10.215517044067383,-0.039015524089336395,0.021286575123667717,-0.01015943381935358,0.8700829148292542
10.315255403518677,-0.05633549764752388,-0.004041413310915232,-0.013414178974926472,0.3846767544746399
10.418853759765625,0.04088118299841881,0.014803299680352211,0.0022278267424553633,-0.0561283640563488
10.515447854995728,0.1388142853975296,0.053707703948020935,-0.012167379260063171,0.0717553123831749
10.616570234298706,0.1690923422574997,0.05627167969942093,0.006194473709911108,0.6420608758926392
10.715142250061035,0.13213083148002625,0.04634946212172508,0.002397277159616351,0.893349289894104
10.815500259399414,0.11042100936174393,0.03453502804040909,-0.01181869674474001,0.8868188858032227
10.915063858032227,0.05324634164571762,0.029453862458467484,-0.0056443531066179276,0.6537890434265137
11.015619039535522,0.048619143664836884,0.01141830813139677,-3.443846071604639e-05,2.2317142486572266
11.116756200790405,0.056739795953035355,-0.04213326796889305,0.009741696529090405,3.7301228046417236
11.21589732170105,0.08153387159109116,-0.10306791961193085,-0.020773954689502716,3.5940542221069336
11.315787553787231,0.13224923610687256,-0.17718477547168732,-0.016785290092229843,2.6493499279022217
11.416009187698364,0.1787136346101761,-0.2139221876859665,-0.012658534571528435,1.2691456079483032
11.515495538711548,0.20576730370521545,-0.2370944321155548,-0.012425873428583145,0.19502918422222137
11.616494178771973,0.21464595198631287,-0.24096612632274628,0.002410814631730318,-0.469154417514801
11.716949701309204,0.23245826363563538,-0.24795830249786377,-0.008222092874348164,-0.6526921987533569
11.817219257354736,0.2168799638748169,-0.21931537985801697,0.003024969482794404,-0.8262521028518677
11.916726350784302,0.2197307050228119,-0.20125406980514526,-0.004561549052596092,-0.5266192555427551
12.015673637390137,0.20118394494056702,-0.18347083032131195,-0.013481912203133106,-0.21545818448066711
12.11743974685669,0.18052217364311218,-0.17312496900558472,-0.01327297743409872,0.10856734216213226
12.216597557067871,0.16706199944019318,-0.17771244049072266,0.012477274052798748,0.4299718141555786
12.316028118133545,0.1676790416240692,-0.21150410175323486,-0.004792282823473215,0.5866124033927917
12.415270566940308,0.16450391709804535,-0.20450203120708466,0.006069418042898178,-0.018757978454232216
12.514543533325195,0.21113407611846924,-0.16667069494724274,-0.00306515721604228,-0.3183169662952423
12.615291833877563,0.19425532221794128,-0.17569054663181305,-0.011811323463916779,0.3080206513404846
12.715060949325562,0.15337757766246796,-0.21910490095615387,-0.019776901230216026,0.5059096217155457
12.815780639648438,0.16176027059555054,-0.20888815820217133,-0.014684785157442093,-0.07187969982624054
12.914746761322021,0.1733972728252411,-0.20368008315563202,-0.017995184287428856,-0.1974567323923111
13.016658544540405,0.18481804430484772,-0.19390377402305603,-0.0008212085231207311,-0.18412280082702637
13.11559009552002,0.19535015523433685,-0.18643976747989655,0.009913228452205658,-0.07560548931360245
13.216254711151123,0.20313158631324768,-0.1804819256067276,-0.005869176704436541,0.0840337947010994
13.31484842300415,0.20681902766227722,-0.1785350739955902,-0.013213577680289745,0.21746300160884857
13.414780855178833,0.19558186829090118,-0.1790982484817505,-0.009407385252416134,0.3108071982860565
13.517064332962036,0.19362734258174896,-0.19002242386341095,-0.007785426918417215,0.4032447636127472
13.616428852081299,0.18517258763313293,-0.19703006744384766,-0.0006827730685472488,0.23223690688610077
13.717722654342651,0.18215960264205933,-0.20037266612052917,-0.009935985319316387,0.1631184071302414
13.815098762512207,0.18449290096759796,-0.20001937448978424,-0.0055821798741817474,0.03375726938247681
13.916335105895996,0.1890895813703537,-0.1964324563741684,-0.009791574440896511,-0.08722927421331406
14.01789927482605,0.1942429095506668,-0.1980346441268921,-0.014183320105075836,-0.035570818930864334
14.114569664001465,0.19885502755641937,-0.18850238621234894,0.0034228020813316107,-0.045271992683410645
14.216335535049438,0.20679236948490143,-0.18714196979999542,-0.0028639661613851786,0.10911507159471512
14.315426111221313,0.20465832948684692,-0.18430030345916748,-0.006403049919754267,0.2136756032705307
14.417262077331543,0.2233191430568695,-0.19423405826091766,-0.010726623237133026,0.2843101918697357
14.516114234924316,0.2153106927871704,-0.19985994696617126,-0.009592566639184952,0.34426426887512207
14.615584373474121,0.20279136300086975,-0.2125752866268158,0.004332568496465683,0.2631767988204956
14.71576976776123,0.19862636923789978,-0.20962819457054138,0.00847553089261055,0.12515996396541595
14.816348314285278,0.1857631504535675,-0.20815622806549072,0.0007910164422355592,-0.01740773394703865
14.917423248291016,0.179861381649971,-0.206842839717865,-0.008997040800750256,-0.05962694063782692
15.016213178634644,0.17181776463985443,-0.20106850564479828,-0.002331979339942336,-0.04166211560368538
15.117064237594604,0.16741600632667542,-0.20139646530151367,0.011966630816459656,-0.017169713973999023
15.215182304382324,0.17013366520404816,-0.19614242017269135,-0.003674102248623967,-0.0007864228100515902
15.316720962524414,0.1679137498140335,-0.19689197838306427,-0.0007058537448756397,0.06756127625703812
15.414819478988647,0.18217794597148895,-0.19854362308979034,-0.0019746432080864906,0.12466779351234436
15.515868186950684,0.19390331208705902,-0.20110927522182465,0.015648899599909782,0.09693366289138794
15.614590644836426,0.19949375092983246,-0.20241236686706543,-0.042958762496709824,0.04976816475391388
15.716187953948975,0.19468125700950623,-0.20071157813072205,-0.04594714939594269,-0.0671645849943161
15.814626455307007,0.17941954731941223,-0.20593537390232086,-0.018088705837726593,-0.28779327869415283
15.915755271911621,0.1924864798784256,-0.2005854994058609,-0.007392069790512323,-0.7351049184799194
16.015064001083374,0.17801451683044434,-0.1825917661190033,-0.003139824839308858,-1.1089303493499756
16.115830421447754,0.2077990025281906,-0.1565914899110794,0.0004168547166045755,-1.3630260229110718
16.21480083465576,0.20392554998397827,-0.13421647250652313,0.003785432316362858,-1.375800609588623
16.313799619674683,0.21625949442386627,-0.11651316285133362,0.006833745166659355,-1.3006540536880493
16.416114807128906,0.22045452892780304,-0.09849520772695541,0.010411043651401997,-1.2208625078201294
16.515010833740234,0.22382105886936188,-0.08493844419717789,0.029227331280708313,-1.183292031288147
16.61460852622986,0.20939883589744568,-0.06517580896615982,0.013118104077875614,-0.9713953137397766
16.71458148956299,0.18010438978672028,-0.0477321520447731,-0.01526623498648405,-0.7670179009437561
16.81553554534912,0.13772445917129517,-0.03634375333786011,-0.0009213241864927113,-0.6268541216850281
16.914628982543945,0.09268005192279816,-0.033007580786943436,-0.0014881935203447938,-0.6507506370544434
17.0150785446167,0.02661529928445816,-0.030934737995266914,-0.01957981288433075,-0.5983617901802063
17.116007804870605,-0.013443343341350555,-0.02260458469390869,-0.05791513994336128,-0.619148313999176
17.213978052139282,-0.03160073235630989,-0.015268740244209766,-0.07858529686927795,-0.5483548045158386
17.31494426727295,-0.04060203209519386,-0.006706083193421364,-0.11769668012857437,-0.5044428706169128
17.414238452911377,-0.054218076169490814,-0.0069044651463627815,-0.13140302896499634,-0.4149770736694336
17.528223037719727,-0.0345771424472332,-0.007170648314058781,-0.17272090911865234,-0.3107611835002899
17.633652687072754,-0.015573173761367798,-0.020639555528759956,-0.17960001528263092,-0.29648101329803467
17.718844175338745,-0.0027442839927971363,-0.029361946508288383,-0.18680107593536377,-0.4632655084133148
17.81755781173706,0.0021786652505397797,-0.021602800115942955,-0.19270217418670654,-0.663291871547699
17.923821210861206,0.03138178586959839,-0.03488826006650925,-0.20271587371826172,-0.5171145796775818
18.026427507400513,0.02377164177596569,-0.0321817584335804,-0.21244391798973083,-0.7405458688735962
18.127488136291504,0.03375152871012688,-0.017783518880605698,-0.20699143409729004,-0.7626276612281799
18.221015691757202,0.014634397812187672,0.04282221570611,-0.19946780800819397,-0.7767158150672913
18.32584023475647,-0.0019046807428821921,0.04462521895766258,-0.21508479118347168,0.1304275542497635
18.438127040863037,-0.00602170592173934,0.03222697600722313,-0.22192703187465668,0.6031177043914795
18.52940320968628,-0.0032900639344006777,0.0068914927542209625,-0.2281964123249054,0.6972715258598328
18.636300086975098,-0.008298610337078571,-0.03055918961763382,-0.21017451584339142,0.34397953748703003
18.73315119743347,-0.005299408454447985,-0.0450112447142601,-0.2246875762939453,-0.2976851165294647
18.821877479553223,-0.01206811610609293,-0.04213326424360275,-0.21913059055805206,-0.7086869478225708
18.92501211166382,-0.007705523632466793,-0.04273006319999695,-0.2163749635219574,-0.7745411396026611
19.04917573928833,-0.00813305750489235,-0.04176962748169899,-0.21423807740211487,-0.6842163801193237
19.12043070793152,-0.0012712209718301892,0.004006771370768547,-0.24450890719890594,-0.8559297323226929
19.22279191017151,0.016845228150486946,0.03400304168462753,-0.20876814424991608,-0.21138133108615875
