Time (ms),roll,pitch,yaw,thrust
0.11948752403259277,0.002304119523614645,0.002350362716242671,0.004436469171196222,-1.4986333847045898
0.21896624565124512,0.0013614065246656537,-0.003321111900731921,0.0042192391119897366,-1.4434033632278442
0.31853175163269043,-0.003766080364584923,-0.0038189608603715897,0.0004853637074120343,-1.4477969408035278
0.41860151290893555,0.0022866663057357073,0.0004748565552290529,0.002452781656756997,-1.4820809364318848
0.5190997123718262,0.001699485001154244,0.0011997036635875702,9.24895066418685e-05,-1.4982489347457886
0.6182301044464111,0.00306682544760406,-0.0036859028041362762,0.0012486954219639301,-1.459859013557434
0.7180778980255127,0.0011441829847171903,-0.0009185075759887695,-0.0004219758266117424,-1.4882603883743286
0.8191096782684326,-0.0002650987880770117,-0.009262480773031712,0.002033297438174486,-1.4200636148452759
0.9176928997039795,0.0038151440676301718,0.0011032477486878633,-0.004813764244318008,-1.4997879266738892
1.0178532600402832,0.002000967273488641,-0.00905235018581152,0.005557558499276638,-1.4281729459762573
1.1200425624847412,-0.001891998341307044,-0.0031242917757481337,-0.0018581012263894081,-1.4845112562179565
1.2196776866912842,0.0010274472879245877,-0.004052873235195875,0.0004859497130382806,-1.4757261276245117
1.3177764415740967,0.0016743468586355448,-0.006414296571165323,-0.0008700757171027362,-1.4540506601333618
1.4178011417388916,0.002020858461037278,-0.006924640387296677,-0.004481119103729725,-1.4487314224243164
1.5177333354949951,0.003546568565070629,0.004406763240695,0.0021492394153028727,-1.5331944227218628
1.620436429977417,-0.0008682520128786564,-0.0075539774261415005,6.313654012046754e-06,-1.4331551790237427
1.7191245555877686,0.0031783715821802616,0.0027720672078430653,-0.0007633725181221962,-1.517032504081726
1.8184430599212646,0.002931188093498349,-0.004159787204116583,0.0001828768290579319,-1.464802622795105
1.9181878566741943,0.002686010440811515,-0.008673779666423798,0.007043206598609686,-1.4315258264541626
2.018618106842041,0.0015929837245494127,-0.003384996671229601,-0.006100080441683531,-1.482574701309204
2.119266986846924,0.006257524713873863,-0.0008443399565294385,0.0014948638854548335,-1.4992687702178955
2.216938018798828,-0.006079786457121372,-0.005738247185945511,0.0011263283668085933,-1.4610424041748047
2.3175549507141113,-0.0005808103596791625,-0.003880932927131653,-0.00116451783105731,-1.4716968536376953
2.417409658432007,-0.00020561520068440586,-0.005498434882611036,0.0009023395832628012,-1.4705239534378052
2.51900315284729,0.004748601000756025,0.002729124156758189,-0.001751235220581293,-1.5410094261169434
2.61790132522583,0.0042526694014668465,-0.02455161325633526,0.00220197974704206,-0.07438681274652481
2.719119071960449,0.005198970437049866,-0.02124347910284996,0.0021796557120978832,-0.6864266395568848
2.8176708221435547,-0.0012656192993745208,-0.023774346336722374,0.0003265128470957279,-0.91080641746521
2.917496681213379,0.0068621342070400715,-0.004765546415001154,-0.0014576052781194448,-1.3797091245651245
3.01835036277771,0.000852807133924216,-0.013540362007915974,0.0029424577951431274,-1.2877838611602783
3.119389057159424,0.00794494990259409,0.0010973805328831077,0.000653825409244746,-1.5033546686172485
3.219923973083496,0.0010104678804054856,-0.009162375703454018,-0.003923096228390932,-1.3976905345916748
3.317894697189331,0.0017340919002890587,-0.007680470123887062,-0.008712288923561573,-1.4262851476669312
3.418541431427002,-0.017840879037976265,-0.015818625688552856,-0.004708671942353249,-1.3636127710342407
3.518670082092285,-0.0064471145160496235,-0.001033567707054317,-0.0057890526950359344,-1.51743483543396
3.62014102935791,6.692780880257487e-05,-0.0018526071216911077,0.004456323105841875,-1.5194342136383057
3.7200841903686523,-0.0009697659406810999,-0.004254334606230259,-0.0026394245214760303,-1.5060099363327026
3.818801164627075,-0.002036792691797018,-0.009557505138218403,-0.00796473491936922,-1.4626190662384033
3.9175291061401367,-0.003264401340857148,-0.008002088405191898,-0.002850572345778346,-1.476048231124878
4.017179012298584,0.001593019929714501,-0.00745735876262188,0.004287950694561005,-1.478185772895813
4.118380784988403,-0.003411696059629321,-0.006807188503444195,0.00011746559903258458,-1.4725431203842163
4.217741012573242,0.00606534956023097,0.0021825553849339485,-4.553188045974821e-05,-1.5433807373046875
4.317291736602783,-0.001441702013835311,-0.0034718522801995277,0.0008297833264805377,-1.506158709526062
4.417577266693115,0.007588871289044619,0.0034955341834574938,0.0018757483921945095,-1.5524656772613525
4.517815589904785,0.008810603059828281,0.0033597389701753855,0.008305764757096767,-1.5531851053237915
4.617030382156372,0.008437559008598328,0.0014788442058488727,0.0032800049521028996,-1.531036615371704
4.717228889465332,-0.0033155460841953754,0.008787117898464203,0.0025209281593561172,-1.4737951755523682
4.818379640579224,-0.007443961687386036,0.033900193870067596,0.0033381569664925337,-1.440810203552246
4.91864013671875,-0.005021865479648113,0.06847766786813736,-0.004002405796200037,-1.4447516202926636
5.021746873855591,0.003649739548563957,0.0825902670621872,-0.00032220897264778614,-1.2980960607528687
5.120144367218018,0.028046689927577972,0.0941072404384613,-0.0010576113127171993,-1.213017463684082
5.21930718421936,0.006835398729890585,0.09851274639368057,0.007970789447426796,-1.0964903831481934
5.319271802902222,0.005584758706390858,0.08482442796230316,0.0074144406244158745,-0.6835362911224365
5.41790246963501,0.025985179468989372,0.07499419897794724,0.003482416272163391,0.46396586298942566
5.519444942474365,0.05742281675338745,0.006260701455175877,0.005398919805884361,1.826184630393982
5.616859674453735,0.08331418037414551,-0.13135814666748047,-0.04811377823352814,3.950040340423584
5.716611623764038,-0.008380278944969177,-0.19695594906806946,-0.03548777475953102,2.3394742012023926
5.817480564117432,-0.04215196147561073,-0.1831500381231308,0.05865786224603653,-0.3353627920150757
5.918096303939819,-0.027017559856176376,-0.05823201313614845,0.16602279245853424,-1.6246336698532104
6.016828536987305,-0.03416324406862259,0.0007216783706098795,0.19422827661037445,-0.46701329946517944
6.1172707080841064,-0.01687576062977314,0.010015255771577358,0.16393046081066132,0.9429943561553955
6.216559886932373,-0.007332419976592064,-0.008026487194001675,0.1508142054080963,1.3076398372650146
6.316269636154175,-0.017867907881736755,-0.02058342471718788,0.13959242403507233,0.8952992558479309
6.417670011520386,0.0035201215650886297,-0.018938180059194565,0.1456812173128128,0.6375113129615784
6.517324209213257,-0.01618267595767975,-0.06331078708171844,0.19386497139930725,0.5554601550102234
6.617469549179077,-0.011683175340294838,-0.04568289592862129,0.25260889530181885,-0.48882344365119934
6.716351747512817,-0.0075650447979569435,-0.02630232833325863,0.261287122964859,-0.8066747188568115
6.816807746887207,-0.019303688779473305,0.03463812172412872,0.30190208554267883,-0.8003811836242676
6.915931463241577,-0.014746205881237984,0.01844359189271927,0.3247557580471039,0.04072034731507301
7.017694473266602,0.01829707622528076,-0.04898110032081604,0.31131696701049805,0.49996790289878845
7.116154670715332,0.02199462801218033,-0.09654814004898071,0.2948402464389801,-0.18146854639053345
7.216787576675415,0.0261263158172369,-0.09887572377920151,0.32831066846847534,-1.4114805459976196
7.316636085510254,0.02061816304922104,-0.07729658484458923,0.33883658051490784,-2.1293890476226807
7.417012453079224,0.015989989042282104,-0.05142981931567192,0.3099254369735718,-2.2145814895629883
7.516146898269653,0.011380228213965893,-0.015849852934479713,0.2566038966178894,-1.754072904586792
7.617074728012085,-0.01317777018994093,0.021195823326706886,0.22558914124965668,-0.8162482380867004
7.717435359954834,-0.036909766495227814,0.0002414949849480763,0.19430771470069885,-0.10111808031797409
7.8173980712890625,-0.02045571617782116,0.008145206607878208,0.15399925410747528,-0.15700426697731018
7.916253089904785,-0.03318905830383301,-0.01942933164536953,0.10523554682731628,-0.12161384522914886
8.017895221710205,-0.003386322408914566,-0.005197347607463598,0.09401649236679077,-0.3824523985385895
8.117726564407349,0.008170437067747116,0.027161389589309692,0.09119883924722672,-0.4960843026638031
8.216558456420898,0.06926550716161728,0.06962613761425018,0.08192761242389679,-0.1787378191947937
8.31607723236084,0.08199502527713776,0.07252194732427597,0.07230421900749207,0.6727278232574463
8.416765689849854,0.09737283736467361,0.08536562323570251,0.06747826188802719,1.5000311136245728
8.517324447631836,0.056020040065050125,0.05345376953482628,0.0460369810461998,1.743212342262268
8.61779522895813,0.02404727227985859,0.016834253445267677,0.021774621680378914,1.3143573999404907
8.71662449836731,-0.0028550385031849146,-0.004143520724028349,0.03905656933784485,0.6433141827583313
8.816212892532349,-0.0028395378030836582,-0.02729674056172371,0.03216199204325676,0.057634178549051285
8.916902780532837,-0.00917242094874382,-0.03403545543551445,0.03710681572556496,-0.48876670002937317
9.016286373138428,-0.016599375754594803,-0.025823455303907394,0.03428225219249725,-0.7645045518875122
9.11746621131897,-0.008212821558117867,-0.02557041123509407,0.008745105005800724,-0.7070780992507935
9.216755151748657,-0.0027700040955096483,-0.002564017428085208,0.044226109981536865,0.12340851873159409
9.315944910049438,-0.002230235142633319,-0.0005938013200648129,0.04022446274757385,-0.15435463190078735
9.416505098342896,-0.010542036034166813,-0.0066498094238340855,0.028849178925156593,-0.06673425436019897
9.517030477523804,-0.007417856249958277,-0.003687359858304262,0.009094777517020702,-0.13839387893676758
9.616966724395752,0.006214549299329519,0.013509752228856087,-0.0029220266733318567,-0.25332045555114746
9.716332197189331,0.06784432381391525,-0.032326389104127884,0.006876714061945677,-0.19950293004512787
9.817263126373291,0.13334523141384125,-0.019240321591496468,-5.621829768642783e-05,-0.37661194801330566
9.916054725646973,0.045715201646089554,0.10012896358966827,-0.009401297196745872,-1.2832684516906738
10.017451286315918,0.019300928339362144,0.01233507227152586,-0.007575697265565395,1.0826749801635742
10.115679502487183,-0.016753096133470535,0.04516712576150894,-0.004788228310644627,0.5441247224807739
10.217438697814941,-0.11338889598846436,0.031368549913167953,-0.0024799141101539135,0.8155990839004517
10.31625485420227,-0.1223418340086937,0.011704321019351482,0.0030942216981202364,0.9539264440536499
10.41551685333252,-0.07563100755214691,0.040939535945653915,0.004761432763189077,0.8690211176872253
10.515933513641357,-0.009217030368745327,0.036423321813344955,-0.0017218884313479066,1.026326060295105
10.617417573928833,0.017013318836688995,0.04723385348916054,0.013194202445447445,0.9354410767555237
10.716434955596924,0.04311710223555565,0.03256167098879814,0.014382565394043922,1.032961130142212
10.815003633499146,0.06647933274507523,0.005243153776973486,1.141707252827473e-05,0.8130362629890442
10.916271448135376,0.051675863564014435,-0.00860841479152441,0.003480811370536685,0.26580506563186646
11.017071962356567,0.0586354099214077,-0.026539271697402,-0.007255398202687502,-0.01314140297472477
11.115954875946045,0.03524056449532509,-0.0035732730757445097,-0.010707748122513294,-0.23482607305049896
11.216387748718262,0.014611795544624329,-0.00807944405823946,-0.009006112813949585,-0.11725718528032303
11.317413330078125,-0.011811909265816212,-0.014100094325840473,-0.0019644491840153933,0.9250708222389221
11.416021585464478,0.027783548459410667,-0.052541736513376236,-0.00831033568829298,3.0388967990875244
11.51553750038147,0.08795035630464554,-0.09251832962036133,-0.007655443158000708,3.2054412364959717
11.616976976394653,0.14801038801670074,-0.1635597050189972,-0.005634211003780365,2.66487979888916
11.716349363327026,0.18206091225147247,-0.19604606926441193,-0.01113881729543209,1.7180259227752686
11.81645154953003,0.20183086395263672,-0.19990506768226624,-0.007140512112528086,0.6042919158935547
11.917005062103271,0.2006780505180359,-0.19550859928131104,0.0037816278636455536,-0.1219683513045311
12.017630815505981,0.2206970602273941,-0.22902898490428925,0.0001284124155063182,-0.39661356806755066
12.117962837219238,0.17216649651527405,-0.17282474040985107,0.008983880281448364,-0.67601478099823
12.216728925704956,0.24144336581230164,-0.24211092293262482,-0.008647153154015541,0.1378258913755417
12.31900668144226,0.26846620440483093,-0.265411913394928,-0.013935022056102753,-0.614710807800293
12.416168212890625,0.22471390664577484,-0.23955945670604706,-0.003653832245618105,-1.343358039855957
12.518407106399536,0.19785086810588837,-0.2167348563671112,-0.00027654049335978925,-1.0971351861953735
12.616137742996216,0.08262938261032104,-0.25547343492507935,-0.015197697095572948,-0.7148377299308777
12.71648097038269,0.055973730981349945,-0.25133252143859863,-0.0148900356143713,-0.9969081282615662
12.816156387329102,0.07935375720262527,-0.2127850204706192,-0.008315078914165497,-1.0477937459945679
12.916331768035889,0.1694008857011795,-0.1188243106007576,-0.0027330645825713873,-0.8142812252044678
13.01531171798706,0.20536674559116364,-0.08973804116249084,-0.01640518754720688,0.6549635529518127
13.11531400680542,0.22608184814453125,-0.09113799035549164,-0.015010674484074116,1.8291199207305908
13.216038942337036,0.22102439403533936,-0.10086677968502045,-0.0019117527408525348,2.2676427364349365
13.31709885597229,0.2135077565908432,-0.11415324360132217,-0.0032717036083340645,2.107076644897461
13.416551113128662,0.2128758430480957,-0.15160244703292847,0.00732649490237236,1.9235951900482178
13.515188217163086,0.1814625859260559,-0.15887363255023956,-0.003570766421034932,1.5147969722747803
13.61793828010559,0.17828920483589172,-0.18355366587638855,-0.020055115222930908,1.1140587329864502
13.717336177825928,0.22447261214256287,-0.2294246256351471,-0.010202744975686073,0.6821432113647461
13.816145181655884,0.20063121616840363,-0.23113997280597687,-0.00447696540504694,-0.1336544156074524
13.916556358337402,0.18870773911476135,-0.188426211476326,-0.0180277768522501,-0.44433116912841797
14.016612768173218,0.20101043581962585,-0.17591220140457153,-0.003378150286152959,0.028683744370937347
14.11711072921753,0.17804791033267975,-0.1854468137025833,-0.0018464435124769807,0.37003466486930847
14.217425346374512,0.14530813694000244,-0.1987069994211197,-0.011075805872678757,0.5731780529022217
14.31536316871643,0.14823701977729797,-0.20005255937576294,-0.003042149357497692,0.3054424524307251
14.41488003730774,0.12531819939613342,-0.2554779052734375,-0.01253353152424097,0.4456351399421692
14.51576542854309,0.13233830034732819,-0.23351389169692993,-0.008467595092952251,-0.5753182172775269
14.61626672744751,0.09436558932065964,-0.218875914812088,0.0028516033198684454,-0.715071439743042
14.718023538589478,0.16609707474708557,-0.18403024971485138,-0.005922124721109867,-0.5695555210113525
14.815273761749268,0.22102434933185577,-0.18129344284534454,-0.008360391482710838,0.1142529845237732
14.91590166091919,0.24802929162979126,-0.18249882757663727,-0.0043491399846971035,0.333065927028656
15.01809024810791,0.26388755440711975,-0.19064339995384216,-0.011912228539586067,0.5568721294403076
15.117367267608643,0.2611987888813019,-0.1976352334022522,-0.003075193613767624,0.406850129365921
15.218387365341187,0.25690892338752747,-0.20213666558265686,-0.003446017624810338,0.45302021503448486
15.317586421966553,0.2197503000497818,-0.20651443302631378,-0.008452316746115685,0.2886640429496765
15.41469120979309,0.21256273984909058,-0.1933613121509552,0.020290417596697807,-0.02942816913127899
15.516918659210205,0.19482308626174927,-0.1969158947467804,0.0023007977288216352,0.22079047560691833
15.616044044494629,0.18524645268917084,-0.2013619840145111,-0.0044745937921106815,0.25723037123680115
15.71729564666748,0.1748763471841812,-0.2208494395017624,-0.015527930110692978,0.11329776793718338
15.815290451049805,0.17032602429389954,-0.217537522315979,-0.002074411604553461,-0.15511810779571533
15.916740417480469,0.18241193890571594,-0.22362560033798218,0.01358814351260662,-0.1976523995399475
16.014691591262817,0.1769554764032364,-0.23621970415115356,0.005748803727328777,-0.23276400566101074
16.116252183914185,0.18566113710403442,-0.234159916639328,-0.010339331813156605,-0.4119013845920563
16.2163507938385,0.1907488852739334,-0.2330716997385025,-0.009626422077417374,-0.55748051404953
16.316826343536377,0.19483983516693115,-0.20213037729263306,-0.012764357961714268,-0.6449065804481506
16.415581703186035,0.18392284214496613,-0.20366431772708893,-0.01406964659690857,-0.5760859847068787
16.51418375968933,0.17184726893901825,-0.1960119754076004,-0.011213259771466255,-0.7194443345069885
16.615406036376953,0.17946627736091614,-0.18638263642787933,-0.012908629141747952,-0.9755657911300659
16.71479845046997,0.1991746872663498,-0.1681324988603592,-0.009269888512790203,-1.233904242515564
16.81490445137024,0.21291488409042358,-0.13249802589416504,0.004843643866479397,-1.427276849746704
16.91433095932007,0.20189860463142395,-0.1138625219464302,-0.0019221669062972069,-1.1394639015197754
17.014883756637573,0.1998862773180008,-0.09798872470855713,-0.007392332889139652,-0.863036036491394
17.114323616027832,0.175754576921463,-0.08643072843551636,-0.008920485153794289,-0.7743984460830688
17.21402645111084,0.14962762594223022,-0.07310584932565689,0.0049550957046449184,-0.7047099471092224
17.314690351486206,0.12561239302158356,-0.06383906304836273,0.009129956364631653,-0.5377781987190247
17.41542148590088,0.08064676821231842,-0.05899592861533165,0.0018781573744490743,-0.5111738443374634
17.51548409461975,0.06635347008705139,-0.06491310149431229,-0.004623228218406439,-1.178224802017212
17.61457061767578,0.03388233855366707,-0.045152705162763596,-0.0018743902910500765,-1.3887654542922974
17.714028120040894,0.018408581614494324,-0.022015372291207314,-0.04786989465355873,-1.177672028541565
17.8158540725708,0.007873647846281528,-0.009018232114613056,-0.08257795125246048,-0.7422401309013367
17.91654062271118,-0.014423214830458164,-0.026198169216513634,-0.1303500086069107,-0.32889923453330994
18.016353368759155,-0.0005628205835819244,-0.03180849179625511,-0.14011073112487793,-0.5751887559890747
18.121235370635986,-0.005205768626183271,-0.01965904049575329,-0.15575437247753143,-0.715565025806427
18.218716859817505,-0.002001985674723983,-0.007560834754258394,-0.1704801768064499,-0.4959646463394165
18.322786808013916,-0.01351833250373602,-0.03044542670249939,-0.18201325833797455,-0.31504833698272705
18.423400402069092,-0.012532242573797703,-0.016283318400382996,-0.1927785724401474,-0.549096405506134
18.533393144607544,-0.013714202679693699,-0.03290018066763878,-0.21622219681739807,-0.2965993881225586
18.623522520065308,-0.0405239537358284,-0.029716942459344864,-0.19659541547298431,-0.43671345710754395
18.7269287109375,-0.04910609871149063,-0.02157672308385372,-0.21032218635082245,-0.7883994579315186
18.83013367652893,-0.01428663544356823,-0.011500074528157711,-0.21666434407234192,-0.8382930159568787
18.936742305755615,-0.01195303350687027,-0.028034836053848267,-0.21506235003471375,-0.6148893237113953
19.02564764022827,0.026437338441610336,-0.026159247383475304,-0.19880998134613037,-0.37455126643180847
19.133056163787842,0.013282399624586105,0.016765989363193512,-0.21146319806575775,-0.6928727030754089
19.249637126922607,0.05445001646876335,0.0005917023518122733,-0.20799203217029572,-0.25879454612731934
19.338318824768066,0.03560253232717514,0.0146966353058815,-0.20508554577827454,-0.12738282978534698
19.43417239189148,0.021148638799786568,0.0363008938729763,-0.2070167362689972,0.018530679866671562
19.52787756919861,0.03824731707572937,0.0314519926905632,-0.21209858357906342,0.48985281586647034
19.62608003616333,0.03326407074928284,0.012603171169757843,-0.21428517997264862,0.667663037776947
19.719012022018433,0.025474706664681435,-0.02432176284492016,-0.2305099219083786,0.7046769261360168
19.83538579940796,0.021702798083424568,-0.05114208534359932,-0.18586726486682892,0.22706709802150726
