Time (ms),roll,pitch,yaw,thrust
0.11684417724609375,0.005820266902446747,-0.004507103003561497,-0.03511882200837135,-1.4166367053985596
0.21575069427490234,0.00017575609672348946,-0.008689764887094498,-0.029672008007764816,-1.3837941884994507
0.31511449813842773,0.0036684887018054724,-0.002481885952875018,-0.033975888043642044,-1.4333125352859497
0.41686344146728516,-0.0012833866057917476,-0.011149614118039608,-0.0443953238427639,-1.376708745956421
0.5150959491729736,0.0007513896562159061,-0.010822445154190063,-0.03537040576338768,-1.3872168064117432
0.6151704788208008,0.003160630352795124,-0.004830615129321814,-0.0375450924038887,-1.4426578283309937
0.7177102565765381,-0.0007908447296358645,-0.006718001794070005,-0.042162179946899414,-1.4299509525299072
0.8162350654602051,0.003093085717409849,-0.004617620259523392,-0.03997986018657684,-1.441586971282959
0.915661096572876,-0.003659270703792572,-0.008856399916112423,-0.0424056351184845,-1.4132264852523804
1.0158557891845703,-0.005416814237833023,-0.0036611915566027164,-0.036075640469789505,-1.441583514213562
1.1150715351104736,-0.0005238719750195742,-0.008675143122673035,-0.023396089673042297,-1.4030998945236206
1.2164132595062256,0.004354613367468119,-0.0028161744121462107,-0.03284359723329544,-1.4595589637756348
1.3172860145568848,-0.0016457673627883196,-0.0049612149596214294,-0.041187506169080734,-1.4461110830307007
1.4159541130065918,0.003378777764737606,-0.0039538065902888775,-0.03356322646141052,-1.4528934955596924
1.515226125717163,-0.0056043402291834354,-0.004363323096185923,-0.037966836243867874,-1.4589368104934692
1.618541955947876,0.004513778258115053,-0.005853754468262196,-0.036680374294519424,-1.451555848121643
1.7168753147125244,0.0026396173052489758,-0.005215360317379236,-0.03443256393074989,-1.447348713874817
1.8154196739196777,-0.0019522926304489374,-0.003788225818425417,-0.035966597497463226,-1.4612784385681152
1.9165990352630615,-0.0001964399853022769,-0.009217686951160431,-0.038123514503240585,-1.41725492477417
2.0180273056030273,0.0002480626862961799,-0.0018609784310683608,-0.031048445031046867,-1.4750497341156006
2.1173572540283203,-0.004049878567457199,-0.005331221502274275,-0.03721731901168823,-1.454512596130371
2.2148585319519043,0.00028930563712492585,-0.0050703734159469604,-0.03723769634962082,-1.4590487480163574
2.3194351196289062,0.00086058652959764,-0.009192049503326416,-0.02995222620666027,-1.4281100034713745
2.415154457092285,-0.0037905278149992228,-0.005474071949720383,-0.03414497897028923,-1.4571688175201416
2.516873598098755,0.0023177615366876125,-0.008896728977560997,-0.041023097932338715,-1.4394437074661255
2.6147892475128174,0.005594402085989714,-0.018104858696460724,-0.010441345162689686,0.04319004341959953
2.7146663665771484,0.010003411211073399,-0.02251654490828514,-0.022802161052823067,-0.4541377127170563
2.8156936168670654,-0.0015669261338189244,-0.0168631449341774,-0.03836547210812569,-0.9554661512374878
2.9153199195861816,-2.7384788836570806e-07,-0.013276824727654457,-0.041208334267139435,-1.1763899326324463
3.0159356594085693,0.0004591273609548807,-0.012032503262162209,-0.040597155690193176,-1.2766531705856323
3.1147756576538086,0.002181706018745899,-0.008590093813836575,-0.0413694828748703,-1.3599194288253784
3.2144079208374023,-4.394725328893401e-05,-0.011177635751664639,-0.040676940232515335,-1.3566588163375854
3.316895008087158,0.000848245806992054,-0.010286048986017704,-0.030746718868613243,-1.3771579265594482
3.414975643157959,0.007999835535883904,-0.003942456562072039,-0.03166844695806503,-1.4425486326217651
3.514942169189453,-0.0033668605610728264,-0.006411213893443346,-0.03944031521677971,-1.4235855340957642
3.615391969680786,-0.002857272746041417,-0.00322962854988873,-0.0373326875269413,-1.4498673677444458
3.7154877185821533,0.000650256872177124,-0.004995646420866251,-0.042311277240514755,-1.4377131462097168
3.815589666366577,0.000574931560549885,-0.0028444731142371893,-0.03636747971177101,-1.455018401145935
3.914445161819458,0.0018893522210419178,-0.006778837647289038,-0.035890426486730576,-1.4241516590118408
4.0162670612335205,-0.003692323574796319,-0.005269757006317377,-0.03593522310256958,-1.4355206489562988
4.115757703781128,-0.001861203694716096,-0.00896762777119875,-0.045335546135902405,-1.4186701774597168
4.216068744659424,0.002585062524303794,-0.008757742121815681,-0.03795258328318596,-1.4202075004577637
4.317434310913086,-0.0014501287369057536,-0.00801184680312872,-0.03708850219845772,-1.424450397491455
4.417878150939941,-0.002901972271502018,-0.005993824452161789,-0.04682968556880951,-1.4397028684616089
4.517793893814087,0.004827625118196011,-0.00514400377869606,-0.030879328027367592,-1.452996015548706
4.619121551513672,0.002482946962118149,-0.009564466774463654,-0.04426070675253868,-1.4223573207855225
4.715575933456421,0.0033891494385898113,-0.0013334680115804076,-0.040772102773189545,-1.4455112218856812
4.814865350723267,-0.005942468531429768,0.016827810555696487,-0.029807928949594498,-1.2902547121047974
4.914897441864014,-0.016031626611948013,0.020706364884972572,-0.036657433956861496,-1.048855185508728
5.015650510787964,-0.02546071819961071,0.02922692336142063,-0.03609270229935646,-0.873426079750061
5.1143717765808105,-0.026022015139460564,0.03636381775140762,-0.03492746129631996,-0.7763417959213257
5.215764999389648,-0.00839471910148859,0.06723744422197342,-0.032288406044244766,-0.6933335065841675
5.31358528137207,-0.0038211361970752478,0.07345592230558395,-0.03759964555501938,-0.1851346492767334
5.414661884307861,0.006572803482413292,0.054507944732904434,-0.024492710828781128,1.0232150554656982
5.513634443283081,0.03980022296309471,-0.11044567823410034,-0.0652889534831047,3.3011667728424072
5.615889072418213,0.02409522235393524,-0.2782960832118988,-0.06370258331298828,1.2749764919281006
5.713496208190918,-0.06263130158185959,-0.14650702476501465,0.0795026570558548,-3.0196151733398438
5.815804719924927,-0.09612873941659927,0.011210044845938683,0.170009046792984,-2.750792980194092
5.914332389831543,-0.052490755915641785,0.03204076364636421,0.139450341463089,-0.06644655764102936
6.0168678760528564,0.0015251521253958344,-0.005710730329155922,0.13750624656677246,1.3065719604492188
6.114572763442993,0.01148526556789875,-0.012107638642191887,0.08048141002655029,0.955611526966095
6.214705228805542,0.0021770955063402653,-0.023491188883781433,0.10319381952285767,0.5329394340515137
6.314301252365112,0.006951103452593088,0.004097982309758663,0.09792088717222214,0.1856985092163086
6.414577484130859,0.004787468817085028,0.005563186015933752,0.17454254627227783,0.19954924285411835
6.5133137702941895,-0.011767562478780746,-0.002295575337484479,0.20741070806980133,0.34855231642723083
6.613684415817261,-0.007262585684657097,-0.012212482281029224,0.26949161291122437,0.03401406481862068
6.714747190475464,-0.02995242550969124,0.03310691937804222,0.24505233764648438,-0.37201428413391113
6.8143839836120605,0.01581723988056183,0.08265212923288345,0.2609579265117645,0.042552970349788666
6.914607048034668,0.058757055550813675,0.09995466470718384,0.22739121317863464,0.9450019598007202
7.01382851600647,0.08699870854616165,0.07023634016513824,0.26915448904037476,1.8914694786071777
7.1142613887786865,0.03732481598854065,0.0330764539539814,0.2628443241119385,1.7616831064224243
7.214345455169678,0.008278331719338894,0.019546717405319214,0.2770499885082245,0.9971344470977783
7.3142218589782715,0.00848172977566719,0.011638977564871311,0.28640511631965637,0.41681432723999023
7.413038015365601,0.10018957406282425,-0.0002716171438805759,0.2539795935153961,0.18206557631492615
7.513805866241455,0.13000233471393585,-0.024994734674692154,0.20304898917675018,0.1829811930656433
7.616070032119751,0.1200307086110115,-0.009787176735699177,0.1538381576538086,-0.25466373562812805
7.7146196365356445,0.09309056401252747,0.06329797953367233,0.10516414046287537,-0.4608055651187897
7.8153886795043945,0.03717026114463806,0.06083875149488449,0.08478882163763046,0.6966341733932495
7.9139556884765625,0.02183005027472973,0.04898390546441078,0.07692824304103851,1.2168599367141724
8.013583421707153,0.028081417083740234,0.046555664390325546,0.05573843792080879,1.4751120805740356
8.113670349121094,0.01609371230006218,0.014287224039435387,0.03534083813428879,1.2512328624725342
8.215107917785645,0.01620844379067421,-0.006964634172618389,0.03704025223851204,0.6375777721405029
8.313494443893433,0.008013848215341568,-0.04130034148693085,0.021964946761727333,0.259460985660553
8.414233922958374,-0.005212119314819574,-0.0573330782353878,0.002561783418059349,-0.44782009720802307
8.514887809753418,-0.021541979163885117,-0.05807723104953766,0.021055441349744797,-0.9655762910842896
8.61350965499878,0.014265910722315311,-0.16762220859527588,0.0015987834194675088,-0.8939656615257263
8.715075254440308,0.02097119390964508,-0.14587900042533875,-0.0075185601599514484,-2.612647533416748
8.812939643859863,0.019666878506541252,-0.10800623893737793,-0.0046522715128958225,-3.22182035446167
8.914247989654541,0.012174420058727264,-0.08546604216098785,-0.024158837273716927,-2.9161670207977295
9.014424324035645,0.013554145582020283,-0.05753374099731445,-0.027813944965600967,-2.4828362464904785
9.115238428115845,0.02291584387421608,-0.0315605103969574,-0.02288581058382988,-1.773712158203125
9.214394092559814,0.0017120122211053967,-0.0031224237754940987,0.023294132202863693,0.285820335149765
9.314879894256592,-0.00564040569588542,-0.008124873973429203,0.046679913997650146,0.12248119711875916
9.414357423782349,-0.003316077869385481,-0.008902647532522678,-0.010932478122413158,-0.03150380775332451
9.513514280319214,-0.0007546934648416936,0.005373158026486635,-0.03814193606376648,-0.34956619143486023
9.614445209503174,0.010708591900765896,0.015692709013819695,-0.05840447172522545,-0.22953511774539948
9.715748071670532,0.014306645840406418,0.05634232982993126,-0.048086978495121,-0.0195461418479681
9.813282251358032,0.08098676055669785,0.07914700359106064,-0.050064537674188614,0.5017211437225342
9.913377285003662,0.05807461589574814,0.07549489289522171,-0.04338487982749939,1.142770528793335
10.013454914093018,0.03534841537475586,0.07246199250221252,-0.03359915316104889,1.5485388040542603
10.116820812225342,-0.05929296463727951,0.05006803199648857,-0.05630139261484146,1.7971183061599731
10.216604471206665,-0.1303824782371521,0.017181752249598503,-0.05472907796502113,1.49197518825531
10.316340923309326,-0.027799837291240692,-0.05710543319582939,-0.04341357573866844,0.9962394833564758
10.41327428817749,-0.23307761549949646,-0.07224749773740768,-0.02864636667072773,-0.5904869437217712
10.517171621322632,-0.34075143933296204,-0.06370341777801514,-0.0336773619055748,-1.3401734828948975
10.615513801574707,-0.1873437762260437,-0.00690104253590107,-0.037718143314123154,-1.5373878479003906
10.71658968925476,-0.020970044657588005,0.02991383709013462,-0.0571591854095459,-0.9759983420372009
10.812923192977905,0.09687994420528412,-0.00702467979863286,-0.07047107070684433,-0.1203971803188324
10.914377689361572,0.20264050364494324,0.03314293920993805,-0.05326035991311073,-0.1781027466058731
11.01417350769043,0.2155119627714157,0.05848090723156929,-0.04523306339979172,0.38607707619667053
11.113481760025024,0.1810104101896286,0.07302413135766983,-0.02788281813263893,0.9609023332595825
11.213018417358398,0.10752929002046585,0.0737546756863594,-0.03806160017848015,1.3503684997558594
11.315764904022217,0.06688137352466583,0.0569770485162735,-0.031849946826696396,1.7613525390625
11.415710687637329,0.06248639151453972,0.023129841312766075,-0.03402102366089821,4.351315498352051
11.514891147613525,0.07593870162963867,-0.04540447145700455,-0.03035181574523449,4.9261393547058105
11.613461971282959,0.13105091452598572,-0.12203451246023178,-0.04014056921005249,4.223813533782959
11.712529420852661,0.185276061296463,-0.1851293295621872,-0.07626798748970032,2.8226327896118164
11.813781261444092,0.2298348993062973,-0.2207181602716446,-0.08364035934209824,1.4444029331207275
11.913350105285645,0.2396818995475769,-0.23236986994743347,-0.02994275465607643,0.3429182767868042
12.014733076095581,0.23327240347862244,-0.2226327359676361,-0.03632766380906105,-0.6820735335350037
12.114230394363403,0.16421397030353546,-0.3162062168121338,-0.04823974519968033,-0.8470682501792908
12.213027238845825,0.17692594230175018,-0.3255046606063843,-0.02699468284845352,-2.0422046184539795
12.313779830932617,0.20103012025356293,-0.29537665843963623,-0.042102914303541183,-2.818837881088257
12.412525415420532,0.2071388214826584,-0.2043987363576889,-0.055344998836517334,-2.484837293624878
12.51523494720459,0.24207043647766113,-0.09200015664100647,-0.06750776618719101,-1.055295705795288
12.613632917404175,0.22489367425441742,-0.10453104227781296,-0.060823168605566025,0.9198558926582336
12.71386194229126,0.22158129513263702,-0.07935448735952377,-0.04523184150457382,1.8189597129821777
12.812532424926758,0.21029402315616608,-0.08074414730072021,-0.035274483263492584,2.6018314361572266
12.912322521209717,0.1739722490310669,-0.14902977645397186,-0.04916004091501236,2.9548659324645996
13.013029336929321,0.16098730266094208,-0.1815430074930191,-0.046295616775751114,2.0846166610717773
13.11433219909668,0.16188137233257294,-0.19563445448875427,-0.039870116859674454,1.0755457878112793
13.21494722366333,0.1609697937965393,-0.1931980550289154,-0.03043348900973797,0.4805254340171814
13.314614534378052,0.1665545403957367,-0.18545567989349365,-0.030455129221081734,0.23414820432662964
13.416178703308105,0.18743664026260376,-0.1788707822561264,-0.024510059505701065,0.31581470370292664
13.515970945358276,0.19919408857822418,-0.1741141825914383,-0.05326126888394356,0.5790812969207764
13.615259408950806,0.19809970259666443,-0.175008162856102,-0.05366368964314461,0.7196030616760254
13.717892408370972,0.20665204524993896,-0.18766726553440094,-0.050798967480659485,0.7567712664604187
13.818159341812134,0.21129277348518372,-0.19231632351875305,-0.068873330950737,0.693629801273346
13.917200803756714,0.20157350599765778,-0.20076966285705566,-0.08001518994569778,0.5253717303276062
14.014050960540771,0.2037929892539978,-0.20651426911354065,-0.06632186472415924,0.34183672070503235
14.116439819335938,0.19981086254119873,-0.2072247862815857,-0.0382753387093544,0.14739832282066345
14.21497368812561,0.1813877820968628,-0.20477302372455597,-0.014983061701059341,0.01464526541531086
14.315460920333862,0.17107918858528137,-0.21063515543937683,-0.0052408622577786446,-0.0674542784690857
14.414245367050171,0.16437512636184692,-0.20805343985557556,-0.0449475534260273,-0.11824102699756622
14.513941287994385,0.1668751835823059,-0.20905087888240814,-0.05938976630568504,-0.0917716845870018
14.614698648452759,0.1740819215774536,-0.19759558141231537,-0.04690849035978317,-0.09457612037658691
14.718130111694336,0.1876911222934723,-0.19465860724449158,-0.03325531259179115,-0.033184926956892014
14.817000150680542,0.1990932673215866,-0.1986212283372879,-0.03611692786216736,0.08106406778097153
14.91533899307251,0.21816939115524292,-0.19781404733657837,-0.04055940732359886,0.08430712670087814
15.016220331192017,0.2345685362815857,-0.19538722932338715,-0.027865013107657433,0.1309763342142105
15.116527557373047,0.22610296308994293,-0.19738678634166718,-0.04218151420354843,0.15359586477279663
15.215553760528564,0.22363901138305664,-0.19377796351909637,-0.05572732165455818,0.08023707568645477
15.317954063415527,0.2063019573688507,-0.19144125282764435,-0.04851941391825676,0.2364041805267334
15.41774296760559,0.21620610356330872,-0.19208015501499176,-0.0383908748626709,0.21627652645111084
15.516323804855347,0.20443420112133026,-0.20029260218143463,-0.029954958707094193,0.23729455471038818
15.613816261291504,0.20771527290344238,-0.2018299698829651,-0.04287181794643402,0.12378250807523727
15.715294361114502,0.19948627054691315,-0.19732190668582916,-0.03857464715838432,0.10747798532247543
15.813526153564453,0.1753735989332199,-0.19772449135780334,-0.040890973061323166,0.14198651909828186
15.91380262374878,0.17015649378299713,-0.19881176948547363,-0.05103488266468048,0.2280062437057495
16.014164686203003,0.14061082899570465,-0.20489443838596344,-0.042108867317438126,0.19395264983177185
16.113863229751587,0.10583639144897461,-0.20561599731445312,-0.03701990470290184,0.1940712034702301
16.214149236679077,0.0841376930475235,-0.20204591751098633,-0.05362452566623688,0.09988139569759369
16.314906120300293,0.06384044140577316,-0.20650191605091095,-0.04264378175139427,0.11316706240177155
16.415455102920532,0.05155980959534645,-0.2096850872039795,-0.033994920551776886,0.13158974051475525
16.513610124588013,0.046800024807453156,-0.2063257396221161,-0.02974301017820835,0.012651181779801846
16.61464810371399,0.0501544363796711,-0.21068088710308075,-0.040854159742593765,0.08405008912086487
16.713435888290405,0.03981097787618637,-0.2170730084180832,-0.04619619622826576,-0.06315102428197861
16.814565896987915,0.042893167585134506,-0.20466172695159912,-0.031633079051971436,-0.14832910895347595
16.91235852241516,0.040182773023843765,-0.1991874873638153,-0.03816220909357071,-0.028361545875668526
17.013754844665527,0.0332501120865345,-0.19798694550991058,-0.0376967117190361,0.04344559088349342
17.11285424232483,0.029537305235862732,-0.19979047775268555,-0.024719292297959328,0.05593490228056908
17.212814807891846,0.03409115597605705,-0.19248034060001373,-0.028570761904120445,-0.18518218398094177
17.31232452392578,0.02099110186100006,-0.18232116103172302,-0.037167988717556,-0.5592387318611145
17.413068056106567,0.01323675736784935,-0.16548456251621246,-0.044146955013275146,-0.8269441723823547
17.511362075805664,-0.005601377226412296,-0.15724152326583862,-0.04325762018561363,-0.8906593918800354
17.61268162727356,0.0021140656899660826,-0.1350642442703247,-0.028570078313350677,-1.041791319847107
17.714330673217773,0.0022039865143597126,-0.11835802346467972,-0.019265390932559967,-1.1373441219329834
17.823572635650635,-0.01753082312643528,-0.1003139317035675,-0.03637130931019783,-1.0313633680343628
17.919328212738037,-0.014453165233135223,-0.08317451179027557,-0.04174948111176491,-0.9497382044792175
18.016242504119873,-0.019761253148317337,-0.06147140637040138,-0.04093777388334274,-1.3691010475158691
18.12274742126465,-0.015065337531268597,-0.04054976999759674,-0.03412012383341789,-1.3668172359466553
18.221676349639893,-0.008274736814200878,-0.017684614285826683,-0.07706837356090546,-1.0752047300338745
18.320778608322144,-0.003705158131197095,0.00540373707190156,-0.1089455708861351,-0.6283991932868958
18.417749166488647,0.0012511685490608215,0.021239228546619415,-0.1629980504512787,-0.13034574687480927
18.515010595321655,0.022086044773459435,0.016420826315879822,-0.1920021027326584,0.29723674058914185
18.62389039993286,0.00984183605760336,0.0032518974039703608,-0.19267456233501434,0.4853358864784241
18.72394824028015,-0.0003796001838054508,-0.017312966287136078,-0.1924632340669632,0.19110549986362457
18.825077056884766,-0.022093486040830612,-0.07631073892116547,-0.22279272973537445,0.12423942983150482
18.938594102859497,-0.009058305993676186,-0.06291792541742325,-0.22333930432796478,-1.0371589660644531
19.03285264968872,-0.00046333251520991325,-0.0445333868265152,-0.2318316400051117,-1.356370449066162
19.12753129005432,-0.014023007825016975,0.009877406060695648,-0.24265137314796448,-1.3233624696731567
19.2285795211792,0.027199827134609222,-0.0063102347776293755,-0.24329762160778046,-0.7932575941085815
19.331382989883423,0.04017909988760948,0.020290300250053406,-0.24975158274173737,-0.4274568259716034
19.439213275909424,0.017870014533400536,0.01894533820450306,-0.256732314825058,0.011209878139197826
19.518717765808105,0.002109991619363427,0.031157614663243294,-0.2433982491493225,0.16852033138275146
19.62526774406433,-0.005688169039785862,0.014120285399258137,-0.24837450683116913,0.4518171548843384
19.735296964645386,-0.007054945454001427,0.028435220941901207,-0.2642180621623993,0.20831254124641418
19.825767040252686,-0.005479311104863882,0.024951152503490448,-0.24611781537532806,0.30347198247909546
19.94289779663086,-0.009780850261449814,-0.024152258411049843,-0.2745625376701355,0.5770963430404663
20.023319244384766,-0.003736544633284211,-0.02448025345802307,-0.25025296211242676,-0.05530321225523949
20.119081735610962,-0.002477914560586214,-0.03247816488146782,-0.24049460887908936,-0.4847966134548187
20.227884769439697,-0.004872121382504702,0.0032170098274946213,-0.26507073640823364,-1.0824668407440186
20.33092164993286,0.02267608977854252,0.026797929778695107,-0.24772493541240692,-0.5149660706520081
